Country,State/Province,City,Business Name,Phone,Address,Contact Name,Qty of 7ft Tables,Qty of 8ft Tables,Qty of 9ft Tables,Latitude,Longitude,Geocode Success
USA,AK,Anchorage,Panhandle Bar,(907) 277-9311,"312 West 4th Avenue Anchorage, AK 99504",Jerry Buffington,,,,61.2183318,-149.8880257,TRUE
USA,AK,Anchorage,Anchorage Billiard Palace,(907) 562-4251,"903 W Northern Lights Blvd. Anchorage, AK 99503",,10,,6,61.1955981,-149.8997549,TRUE
USA,AK,Fairbanks,Bank's Billiards,(907) 322-7635,"544 3rd Ave. Fairbanks, AK 99701",Max Adams,1,,6,64.8430855,-147.7201888,TRUE
USA,AK,Fairbanks,Red Fox Bar & Grill,(907) 479-9082,"398 Old Chena Pump Rd. Fairbanks, AK 99709",,,,3,64.8483536,-147.8668356,TRUE
USA,AK,Fairbanks,Tony's Sports Bar,907-378-6969,"537 Gaffney St. Fairbanks, AK 99701",J. D. Clawson,2,,1,64.8368086,-147.7175294,TRUE
USA,AK,Fort Wainwright,American Legion Post 57,(907) 388-5024,"P.O. Box 35574 Fort Wainwright, AK 99703",Robert Monteith,,,1,64.8277871,-147.6429151,TRUE
USA,AK,Juneau,Crystal Saloon,(415) 205-3704,"218 Front Street Juneau, AK 99801",Jack Tripp & Jared Cure,,,,58.3007358,-134.4069332,TRUE
USA,AK,Juneau,Viking Lounge Billiards,(907) 586-2159,"218 Front St. Juneau, AK 99801",,5,,,58.3007358,-134.4069332,TRUE
USA,AK,Fairbanks,Bank's Billiards,(907) 322-7635,"544 3rd Ave. Fairbanks, AK 99701",,1,,6,64.8430855,-147.7201888,TRUE
USA,AK,Fairbanks,Tony's Sports Bar,907-378-6969,"537 Gaffney St. Fairbanks, AK 99701",,2,,1,64.8368086,-147.7175294,TRUE
USA,AK,Juneau,Crystal Saloon,(415) 205-3704,"218 Front Street Juneau, AK 99801",,,,,58.3007358,-134.4069332,TRUE
USA,AL,Adger,River Bend Sports Bar & Grill,(205) 491-3390,"108 Hurd Shoals Rd. Adger, AL 35006",,,,,33.5267486,-87.2380294,TRUE
USA,AL,Anniston,Rack and Roll Billiards,205-862-8700,"917 Noble St. Anniston, AL 36201",,,,,33.6564416,-85.8294343,TRUE
USA,AL,Anniston,Rack and Roll Billiards,256-282-1206,"917 Noble Street Anniston, AL 36201",,,,,33.6564416,-85.8294343,TRUE
USA,AL,Birmingham,"Veal Convention Services, Inc.",205-328-1010,"3016 Rev. Abraham Woods Jr. Blvd. Birmingham, AL 35203",Katie Clements,,,,33.5289728,-86.7962035,TRUE
USA,AL,Birmingham,Iron City Billiards,(256) 375-6454,"800 Gadsden Hwy Birmingham, AL 35235",,,,,33.5850061,-86.6731417,TRUE
USA,AL,Birmingham,Pub 261,(205) 444-0261,"9340 Helena Rd Birmingham, AL 35244",,,,,33.323227,-86.8168564,TRUE
USA,AL,Birmingham,Courtyard Oyster Bar,(205) 261-9235,"4643 Highway 280 Suite M Birmingham, AL 35242","Carson Robinson Paul Baker
Michael Catanese",,,,33.4271615,-86.7042258,TRUE
USA,AL,Boaz,The Gridiron,256-302-3189,"214 S. McCleskey Street Boaz, AL 35957",Clint Compton,,,,34.1966425,-86.1558604,TRUE
USA,AL,Clanton,Peach City Billiards,205-761-0589,"715 2nd Ave. N. Clanton, AL 35045",Matthew Fountain,,,,32.8386646,-86.6316831,TRUE
USA,AL,Decatur,6 Pocket Billiards,(256) 686-3171,"1819 Bassett Ave SE Decatur, AL 35601",,14,,8,34.5753539,-86.9782847,TRUE
USA,AL,Dora,Sayre Bar & Grill,(205) 648-7427,"4657 Brents Cutoff Rd. Dora, AL 35062",,4,,,33.714046,-86.9937842,TRUE
USA,AL,Foley,The Office Lounge,(251) 970-0043,"122 Co Rd 20 Foley, AL 36535",,7,,,30.371033,-87.6859693,TRUE
USA,AL,Hoover,Bumpers,(205) 983-2016,"2132 Lornaridge Lane Hoover, AL 35216",Khoa Nguyen,,,,33.392285,-86.7938921,TRUE
USA,AL,Hoover,Axe House Billiards,(205) 281-2849,"1901 B Hoover Court Hoover, AL 35226",Janet Arledge,10,,1,33.4025837,-86.8084852,TRUE
USA,AL,Hueytown,Shooters Sports Bar,(205) 744-2277,"821 Allison-Bonnett Memorial Drive Hueytown, AL 35023",,5,,,33.4569742,-86.961521,TRUE
USA,AL,Hueytown,Sportsters Bar & Grill,(205) 744-6292,"242 Forest Road Hueytown, AL 35023",,2,,,33.451435,-86.9811231,TRUE
USA,AL,Huntsville,Billiards & Barstools,(256) 426-1874,"3607 Memorial Parkway S Huntsville, AL 35801",Steve Koslow,,,,34.7731743,-86.58516,TRUE
USA,AL,Huntsville,Bumpers - AL,(256) 527-3635,"4925 University Drive #188 Huntsville, AL 35816",Robert Hall,16,,8,34.7375482,-86.6564251,TRUE
USA,AL,Huntsville,Chips And Salsa Sports Bar,(256) 426-7409 (cell),"10300 Bailey Cove Road Huntsville, AL 35803",Alfredo Ortiz,8,,,34.6430375,-86.5409747,TRUE
USA,AL,Huntsville,Encore Pub & Grill,(256) 886-5079,"13136 South Memorial Parkway Huntsville, AL 35802",Danita Gardner,,,,34.7000158,-86.5859749,TRUE
USA,AL,Huntsville,Good Timez Billiards,256-990-9986 (Cell),"6241 University Drive Huntsville, AL 35806",Sam Zuaiter,18,,10,34.7436772,-86.6794205,TRUE
USA,AL,Huntsville,Steve's Billiards & Lounge,(256) 539-8919,"2322 Memorial Parkway Southwest Huntsville, AL 35801",,12,,,34.7139382,-86.5918287,TRUE
USA,AL,Huntsville,Steve's Cue and Grill,256-684-1786,"2322 1/2 S. Memorial Huntsville, AL 35801",Sharee Skipworth,,,,34.7037827,-86.5879803,TRUE
USA,AL,Leeds,Van's Bar,(205) 352-3699,"1621 Ashville Road Leeds, AL 35094",,3,,,33.557427,-86.5273731,TRUE
USA,AL,Minette,GK Pub,(2513) 674-3573,"204 West 3rd St. Bay Minette, AL 36507",George Kahalley,,,,30.8838383,-87.7770827,TRUE
USA,AL,Mobile,The Billiard Club,251-447-2162,"4130 Government Blvd. Mobile, AL 36693",Richard Byrd,,,,30.6338054,-88.1465226,TRUE
USA,AL,Mobile,The Billiard Club,(251) 674-3573,"2716 Woodland Road Mobile, AL 36693",Alton Harwell,,,,30.6338794,-88.1821648,TRUE
USA,AL,Montgomery,Bizzy B's Bar & Grill,615-330-8741,"163 Eastern Boulevard Montgomery, AL 36117",Corey Phelan or Willy,,,,32.3791665,-86.2068756,TRUE
USA,AL,Montgomery,DeJa Vu Billiards,(334) 356-7530,"121 North Burbank Drive Montgomery, AL 36117",,14,,,32.385016,-86.1998322,TRUE
USA,AL,Montgomery,Montgomery Billiards,(971) 241-1851,"121 N. Burbank Dr. Montgomery, AL 36117",Rick Barber & Justin Player,,,,32.385016,-86.1998322,TRUE
USA,AL,Montgomery,The Break Room,334.538.3705,"P.O. Box 240849 Montgomery, AL 36124",Rick Barber,10,,,32.37,-86.3,TRUE
USA,AL,Montgomery,The Corner Pocket,334-300-2750,"5743 Woodmere Boulevard Montgomery, AL 36117","Jerry ""JJ"" Meeks",,,,32.3566227,-86.21397,TRUE
USA,AL,Opelika,Rockin Robin Bar and Grill,334-703-0558,"2102 Alabama Hwy 169 Opelika, AL 36804",Rusty Hall,,,,32.5992611,-85.3364166,TRUE
USA,AL,Opelika,The Rockin Robin,(334) 759-7171,"2390 Crawford Rd. Opelika, AL 36804",,5,,,32.5993152,-85.3363563,TRUE
USA,AL,Pelham,Lil Bits Tavern,(205) 624-2345,"3221 Highway 52 W B Pelham, AL 35124",,3,,,33.2854716,-86.81477,TRUE
USA,AL,Pelham,Papa G's Billiards,(205) 957-3307,"2722 Chandalar Place Dr. Pelham, AL 35124",Michael Glass,,,,33.3131974,-86.8028816,TRUE
USA,AL,Pelham,Poppa G's Billiards,205-664-2949,"2722 Chadalar Place Drive Pelham, AL 35124",Frank Gagtina,16,,2,33.3131974,-86.8028816,TRUE
USA,AL,Pelham,Rack Em Billiards,(205) 255-8179,"2613 Pelham Parkway Pelham, AL 35124",,8,,8,33.3198611,-86.7963299,TRUE
USA,AL,Sitka,Moose Lodge Sitka,(907) 747-3344,"337 Lincoln Street Sitka, AK 99835",Joseph Reed,,,,57.0510121,-135.3334785,TRUE
USA,AL,Talladega,WW Vending,(205)368-9681,"232 Grand Way Talladega, AL 35160",William Weller,2,,,33.4860424,-86.2639709,TRUE
USA,AL,Tuscaloosa,The Wheelhouse Pub,(205) 535-5933,"2326 4th Street Tuscaloosa, AL 35401",,2,,,33.2112041,-87.5684121,TRUE
USA,AL,Wetumpka,The Breakroom,334-538-3930,"157 Maplewood Dr. Wetumpka, AL 36093",Bryan& Kathe Ainsworth,,,,32.4634821,-86.1103249,TRUE
USA,AR,Benton,Krome Billiards,501-860-1455,"2217 Edison Ave Benton, AR 72015",Sheri Elliott,,,,34.5563378,-92.561454,TRUE
USA,AR,Conway,The Rab Conway,(501) 336-8484,"408 US-65 Conway, AR 72032",,,,,35.1377892,-92.4004565,TRUE
USA,AR,Fayetteville,The Green Room,479-530-2254 (Cell),"326 NW Avenue #16 Fayetteville, AR 72701",,,,,36.067412,-94.1650285,TRUE
USA,AR,Fayetteville,Morano's,(479) 935-4800,"2179 M.L.K. Jr. Blvd Fayetteville, AR 72701",,6,,2,36.0537058,-94.1900876,TRUE
USA,AR,Fort Smith,Classic Billiards,479-650-9577,"1310 S. Zero St. Fort Smith, AR 72901",Wayne Wittamore & Chad Bandy,,,,35.327735,-94.4196028,TRUE
USA,AR,Fort Smith,Squatty's Billiards,(479) 996-1465,"14625 US-71 Fort Smith, AR 72916",,,,,35.265013,-94.3663205,TRUE
USA,AR,Hot Springs,Boondock's Pool Hall,501-881-4856,"1331 Airport Road #G Hot Springs, AR 71913",Joe Gordon,,,,34.4707119,-93.1279098,TRUE
USA,AR,Hot Springs,VIP Billiards Sports Bar,(501) 760-0088,"426 Winona St. Hot Springs, AR 71901",,,,,34.4937063,-93.0572198,TRUE
USA,AR,Mabelvale,On The Snap Billiards,(501) 580-2291,"14106 Chicot Road Mabelville, AR 72103",,8,,,34.622199,-92.365167,TRUE
USA,AR,North Little Rock,Krome Billiards,(501) 771-0968,"2657 Pike Ave North Little Rock, AR 72114",,12,,4,34.7800314,-92.281135,TRUE
USA,AR,Paragould,Cues and Blues,(870) 236-7665,"2702 East Lake Street Paragould, AR 72450",Seth Overton,,,,36.0517321,-90.4504147,TRUE
USA,AR,Paragould,Percy's Pool Hall,870-205-1119,"108 W Main St. Paragould, AR 72450",Devin Poteet,,,,36.0543133,-90.486719,TRUE
USA,AR,Texarkana,The Arrow Bar,870-648-8939,"110 E 36 St Texarkana, AR 71854",Tony Couch,,,,33.4572901,-94.0421899,TRUE
USA,AR,Texarkana,Stages Texarkana,(870) 773-4610,"110 East 36th St. Texarkana, AR 71854",,7,,1,33.4572901,-94.0421899,TRUE
USA,AZ,Avondale,Lighthouse Sports Bar,(623) 440-6968,"12351 West Indian School Road Avondale, AZ 85392",,2,,,33.4927765,-112.3244166,TRUE
USA,AZ,Bellemont,Roadhouse Bar & Grill,(928) 774-5080,"11840 W Route 66 Bellemont, AZ 86015",,3,,,35.2292597,-111.8100822,TRUE
USA,AZ,Gilbert,Jester's Billiards,(480) 926-1314,"1515 North Gilbert Road Gilbert, AZ 85234",,10,,,33.3770851,-111.7875035,TRUE
USA,AZ,Gilbert,Skip & Jans Sports Bar,(480) 539-0110,"1520 W Warner Rd. Unit 112 Gilbert, AZ 85233",,12,,12,33.3363024,-111.8237258,TRUE
USA,AZ,Glendale,Mason's Sports Pub & Grub,(623) 878-9874,"10634 N 51st Ave. Glendale, AZ 85304",,2,,,33.5833333,-112.1695076,TRUE
USA,AZ,Glendale,Stingers,623-326-5370 cell,"20259 N. 52nd Dr. Glendale, AZ 85308",,,,,33.6700451,-112.172479,TRUE
USA,AZ,Holbrook,The Corral,(928) 524-1875,"865 Navajo Blvd Holbrook, AZ 86025",,2,,,34.9072722,-110.1582911,TRUE
USA,AZ,Lake Havasu City,Mr Lucky's Billiards,(928) 855-4000,"3313 Maricopa Ave. Lake Havasu City, AZ 86406",,,,,34.4586428,-114.2769875,TRUE
USA,AZ,Mesa,Main Street Billiards,480-694-7037,"1749 W. Main St. Suite #11 Mesa, AZ 85201",,16,,16,33.414413,-111.869062,TRUE
USA,AZ,Mesa,Venture Out,530-862-1472,"5001 E. Main St. Lot 798 Mesa, AZ 85205",Mike Ellis,,,,33.4119601,-111.723524,TRUE
USA,AZ,Peoria,Lions Light Corp.,907-223-7872,"27896 N 92nd Ln. Peoria, AZ 85383",,,,,33.7369849,-112.259964,TRUE
USA,AZ,Phoenix,Bullshooters,602-441-2447,"3337 West Peoria Phoenix, AZ 85029",Mike Bates,,,,33.5806193,-112.1327994,TRUE
USA,AZ,Phoenix,Metro Sportz Bar,602-326-9448 (Cell),"10402 North Black Canyon Highway Phoenix, AZ 85051",John Upshaw,,,,33.5801077,-112.118329,TRUE
USA,AZ,Phoenix,O'Briens Sports Pub,602--841-3980,"7829 North 35th Ave. Phoenix, AZ 85051",Coady Shannon,,,,33.5523141,-112.1339396,TRUE
USA,AZ,Phoenix,Metro,(602) 997-5717,"10111 N Metro Parkway E Phoenix, AZ 85051",,9,,,33.5793726,-112.1186634,TRUE
USA,AZ,Prescott Valley,Barefoot Bobs Billiards,928-759-9590,"8367 Pecos Drive Prescott Valley, AZ 86314",Bob Soto,,,,34.6266129,-112.3182245,TRUE
USA,AZ,Scottsdale,Connelly Billiards,480-419-2965,"15507 North Scottsdale Road Scottsdale, AZ 85254",,,,,33.6283609,-111.9244087,TRUE
USA,AZ,Scottsdale,Craig Billiards,480-907-7600,"15816 N. Greenway Hayden Loop #400 Scottsdale, AZ 85260",Craig Connelly,,,,33.6294892,-111.9135102,TRUE
USA,AZ,Sun City West,Sun City West,623-544-6029,"19803 R.H. Johnson Boulevard Sun City West, AZ 85375",Jack Cuddie,,,,33.6629403,-112.3562119,TRUE
USA,AZ,Surprise,Sun City Grand,623-546-7468,"19726 N. Remington Dr. Surprise, AZ 85374",Laurie Segler,,,,33.6590081,-112.4056306,TRUE
USA,AZ,Surprise,Sunflower RV Resort,480-387-1041,"16501 N. El Mirage Rd. Surprise, AZ 85378",Andrew Hill,,,,33.6331406,-112.3222977,TRUE
USA,AZ,Tempe,Kolby's Corner Pocket,812-631-2010 (Cell),"1301 E. University Dr. Suite 112 Tempe, AZ 85281",Brian Desantis,,,,33.4212923,-111.9167999,TRUE
USA,AZ,Tempe,Mill's Modern Social,602-491-9119 Bar,"83 East Broadway Road Tempe, AZ 85282",,16,,12,33.4072364,-111.9387616,TRUE
USA,AZ,Tucson,Click's Billiards,520-887-7312,"3325 North 1st Avenue Tucson, AZ 85719",Chris Chlup,,,,32.2673174,-110.9617937,TRUE
USA,AZ,Tucson,Craft Republic,520-575-1980,"7625 North La Cholla Blvd. Tucson, AZ 85741",Michael Murphy,,,,32.3444243,-111.013394,TRUE
USA,AZ,Tucson,Pockets,520-275-6336,"1062 South Wilmot Road Tucson, AZ 85711",Curtis Johnson,,,,32.2084098,-110.8584368,TRUE
USA,AZ,Winslow,PT's Bar,928-386-4205 (Cell),"1500 East 3rd Street Winslow, AZ 86047",Mark Dragoo,,,,35.0182423,-110.6828462,TRUE
USA,AZ,Yuma,Country Roads RV Village,903-539-8844 (Cell),"5707 East 32nd Street Yuma, AZ 85365",Terry Moser,,,,32.6629549,-114.5336913,TRUE
USA,AZ,Yuma,Fat Harvey's,(9284) 683-2873,"303 W 26th St. Yuma, AZ 85364",,3,,,32.6800407,-114.6236966,TRUE
USA,AZ,Yuma,Sundance RV Resort,928-287-5051 (Cell),"13502 North Frontage Yuma, AZ 85367",Christina Hurwin,,,,32.6711104,-114.4019327,TRUE
USA,CA,Anaheim,99 Bottles & Cocktails,(714) 826-2040,"8901 Katella Ave. Anaheim, CA 92804",,,,,33.8034455,-117.9770979,TRUE
USA,CA,Anaheim,Blvd Cocktails,310-619-6828,"819 S. Euclid Street Anaheim, CA 92802",Dustin Cabrera,2,,,33.8207292,-117.9418565,TRUE
USA,CA,Bakersfield,Firehouse Sports Pub,(661) 836-7665,"2905 Calloway Drive Bakersfield, CA 93312",,7,,,35.3872815,-119.1108034,TRUE
USA,CA,Bakersfield,The Corner Pocket,(661) 835-7665,"3216 Ming Ave. #B Bakersfield, CA 93304",,15,,3,35.3402094,-119.0379032,TRUE
USA,CA,Brea,Shady Nook Sports Bar,(714) 672-9440,"151 S Kraemer Blvd. Brea, CA 92821",,2,,,33.9189183,-117.8647966,TRUE
USA,CA,Chico,Down Lo,(530) 892-2473,"319 Main St. Chico, CA 95928",,,,,39.7296047,-121.8389584,TRUE
USA,CA,Chico,Oasis Bar & Grill,(530) 343-4305,"1007 West 1st Street Chico, CA 95928",,,,,39.7251302,-121.8495341,TRUE
USA,CA,El Cajon,Kelly's Pub,(619) 448-7072,"719 E Bradley Ave. El Cajon, CA 92021",,4,,,32.8186591,-116.9512817,TRUE
USA,CA,Emeryville,The Broken Rack,510-915-4611,"5768 Peladeau Street Emeryville, CA 94608",,,,,37.838822,-122.289597,TRUE
USA,CA,Escondido,Five Points Sports Bar,(760) 740-1139,"1881 S. Escondido Blvd. Escondido, CA 92025",,3,,,33.1016234,-117.0713642,TRUE
USA,CA,Fremont,California Billiards,(510) 668-1670,"40510 Albrae St. Fremont, CA 94538",,,,,37.5201274,-121.9875887,TRUE
USA,CA,French Camp,Second Chance Saloon,636-697-5630,"8555 S. Wolfe Rd. French Camp, CA 95231",Janet Van Anterp,,,,37.8765021,-121.3023572,TRUE
USA,CA,Fullerton,The Blue Door,(714) 870-6191,"1310 S Euclid St. Fullerton, CA 92832",,2,,,33.8586737,-117.9414217,TRUE
USA,CA,Hayward,Shirlene's Iron Horse,510-278-3563,"18974 Meekland Avenue Hayward, CA 94541",Ryan Logsdon,,,,37.6802347,-122.1128377,TRUE
USA,CA,Huntington Beach,Shooters Sports Bar,(714) 964-5171,"18582 Beach Blvd. #20 Huntington Beach, CA 92648",,4,,,33.6928978,-117.9880342,TRUE
USA,CA,La Habra,Shotz Bar & Kitchen,(562) 245-7247,"1500 E La Habra Blvd La Habra, CA 90631",,4,,,33.9315081,-117.9294312,TRUE
USA,CA,La Habra,Hedz or Tales,562-640-0701,"211 East Imperial Hwy. LaHabra, CA 90631",Michael Shoemaker,,,,33.9177236,-117.9446023,TRUE
USA,CA,La Mesa,On Cue Billiards,(619) 463-8759,"8308 Parkway Dr. La Mesa, CA 91942",,,,,32.7787877,-117.0176625,TRUE
USA,CA,La Mirada,Sportsman's Lounge,(562) 921-1016,"13902 Imperial Hwy. La Mirade, CA 90638",,2,,,33.9165595,-118.0360587,TRUE
USA,CA,La Mirada,Golde Brique Inn,(562) 941-9263,"14942 Leffingwell Rd. La Mirada, CA 90638",,2,,,33.9260437,-118.0127763,TRUE
USA,CA,Lakewood,Good Times Family Billiards,(562) 420-9556,"4125 Paramount Blvd. Lakewood, CA 90712",,,,,33.8332769,-118.1605238,TRUE
USA,CA,Livermore,Pine Street Bar,(925) 606-8266,"875 Rincon Ave. Livermore, CA 94551",Will Nowicki,4,,,37.6881629,-121.7840641,TRUE
USA,CA,Los Angeles,90 West Lounge,(310) 821-4000,"12740 Culver Blvd. Los Angeles, CA 90066",,1,,,33.9853191,-118.4250498,TRUE
USA,CA,Menifee,Pitstop Pub Sports Bar,(951) 679-0869,"26900 Newport Rd. Menifee, CA 92584",,4,,,33.6860167,-117.1901182,TRUE
USA,CA,Mesa,Pub 33,714-865-0733,"1562 Newport Blvd Costa Mesa, CA 92627",Gary Turner,,,,33.6317961,-117.9231098,TRUE
USA,CA,Milpitas,Edgie's Billiards,(669) 236-9800,"235 S. Milpitas Blvd. Milpitas, CA 95035",,,,,37.4273071,-121.896327,TRUE
USA,CA,Moorpark,Butera's Billiards,805-558-1910,"476 W Los Angeles Blvd. Moorpark, CA 93021",Sal Butera,,,,34.2786359,-118.8870344,TRUE
USA,CA,Northridge,The Nectar,(818) 717-9300,"8626 Balboa Blvd. Northridge, CA 91325",,2,,,34.227449,-118.5021342,TRUE
USA,CA,Oxnard,The Q-Club,818-448-5580,"2362 North Oxnard Boulevard Oxnard, CA 93036",Jose Gonzalez,,,,34.2284779,-119.177341,TRUE
USA,CA,Pasadena,Jerry's Family Billiards,(626) 590-3770,"1312 N. Lake Ave. Pasadena, CA 91104",,,,,34.1685514,-118.1318219,TRUE
USA,CA,Petaluma,Buffalo Billiards,707-585-8992,"246 Petaluma Boulevard North Petaluma, CA 94952",Lee Simon,,,,38.2368001,-122.6414109,TRUE
USA,CA,Ramona,Cheers of Ramona,(760) 789-0270,"2475 Main St. Ramona, CA 92065",,,,,33.0265592,-116.8920234,TRUE
USA,CA,Rancho Cordova,Diamond Billiards,916-257-3874,"10303 Folsom Blvd. Rancho Cordova, CA 95670",Brian Rutledge,,,,38.58798,-121.3078747,TRUE
USA,CA,Rancho Cucamonga,Mustang Sally's,(909) 987-2617,"10028 Foothill Blvd S Rancho Cucamonga, CA 91730",,,,,34.1057492,-117.5891324,TRUE
USA,CA,Rialto,Jacks Grill & Billiards,(909) 440-5730,"148 S Riverside Ave. Rialto, CA 92376",,,,,34.0992784,-117.3707022,TRUE
USA,CA,Sacramento,Hard Times,(916) 332-8793,"5536 Garfield Ave Sacramento, CA 95841",Oscar & Desiree Dominguez,2,,8,38.6671772,-121.3360823,TRUE
USA,CA,Sacramento,Jointed Cue,(916) 456-3243,"2375 Fruitridge Rd. Sacramento, CA 95822",,4,,,38.5251138,-121.484034,TRUE
USA,CA,San Diego,O Zone Billiard Cafe,510-965-8888,"4887 Convoy Street San Diego, CA 92111",Kenny Kwok Ling Cheung,,,,32.8301205,-117.152693,TRUE
USA,CA,San Diego,Pockets Billiards & Brew,(858) 876-5452,"6450 Cleeve Way San Diego, CA 92117",Lila Woodland,,,,32.8271302,-117.1675812,TRUE
USA,CA,San Francisco,Family Billiards,530-570-2611,"2807 Geary Boulevard San Francisco, CA 94118",Gilbert Argllano,,,,37.782059,-122.4492982,TRUE
USA,CA,San Francisco,Billiard Palacade,415-225-4336,"5179 Mission Street San Francisco, CA 94112",,,,,37.7157633,-122.4411891,TRUE
USA,CA,San Francisco,Target Pool,,"1097 Howard St. Unit 307 San Francisco, CA 94103",Christian Taylor,,,,37.7779951,-122.4089145,TRUE
USA,CA,Santa Barbara,Don Q Family Billiard Center,(805) 845-3197,"1128 Chapala St. Santa Barbara, CA 93101",,,,,34.4222502,-119.7052084,TRUE
USA,CA,Santa Barbara,Cliff Room,805-705-8806,"1828 Cliff Drive Santa Barbara, CA 93109",Dave Clark,2,,,34.4017305,-119.7214966,TRUE
USA,CA,Torrance,Mr. Lucky's Billiards,(310) 371-9489,"21020 Hawthorne Blvd. Torrance, CA 90503",,,,,33.8391698,-118.3530662,TRUE
USA,CA,Ventura,GiGi's Cocktail Lounge,(805) 642-2411,"2493 Grand Ave. Ventura, CA 93003",,2,,,34.2514202,-119.2072636,TRUE
USA,CA,Vista,The Stage Coach Inn,(760) 724-9090,"1865 West Vista Way Vista, CA 92083",Jay Turner,,,,33.1881032,-117.2810751,TRUE
USA,CA,Walnut,VIP Billiards,(909) 345-7782,"20627 Golden Springs Dr. Walnut, CA 91789",,,,,33.9981731,-117.855365,TRUE
USA,CA,Westminster,Posse Bar,(657) 227-7172,"13093 Springdale St. Westmister, CA 92683",,1,,,33.7727374,-118.0235948,TRUE
USA,CA,Woodland,The Morning Star Company,519-630-8705 (Cell),"724 Main Street Woodland, CA 95695",Todd Rufer,,,,38.677301,-121.7708465,TRUE
USA,CO,Alamosa,Bank Shot Sports Bar,719-588-9895 (Cell),"1212 8th St. Alamosa, CO 81101",Al Lujan,7,,,37.464304,-105.8747711,TRUE
USA,CO,Arvada,Mile High Billiards,970-418-2159,"11651 West 64th Unit B-3 Arvada, CO 80004",Warner Kingsbury,12,,4,39.8132703,-105.1289563,TRUE
USA,CO,Aurora,Rack'em Billiards & Sports Bar,303-755-7675,"1919 S/ Havana St. Aurora, CO 80014",,12,,10,39.6816115,-104.8675082,TRUE
USA,CO,Aurora,Steel Tips Bar,303-699-2222,"15162 E Hampden Ave. Aurora, CO 80014",,2,,,39.6517194,-104.8121749,TRUE
USA,CO,Aurora,The Famous Door 2,720-870-3236,"15220 E Hampden Ave. Aurora, CO 80014",,,,,39.6517807,-104.8113999,TRUE
USA,CO,Aurora,Piazza's Sports Bar & Restaurant,720-379-7124,"1770 S. Buckley Rd. Aurora, CO 80017",Tony Piazza,8,,,39.6833164,-104.7892846,TRUE
USA,CO,Brighton,Rock Pocketz LLC,303-412-0257,"682 Hayloft Way Brighton, CO, 80601",Rob Randolph,,,,39.9996062,-104.7655167,TRUE
USA,CO,Broomfield,Zooster's Pu & Pool Hall,303-465-9298,"300 Nickel St #23 Broomfield, CO 80020",,11,,,39.9204394,-105.0867478,TRUE
USA,CO,Colorado Springs,Time Out Sports Lounge,719-390-7257,"3721 Drennan Rd. Colorado Springs, CO 80910",,6,,,38.7816275,-104.758839,TRUE
USA,CO,Colorado Springs,Antique Billiards Museum,719-597-9809,"3628 Citadel Dr N Colorado Springs, CO 80909",Jim Barber,25+,,,38.8466041,-104.7620475,TRUE
USA,CO,Denver,Lil's Place,303-430-7176,"7575 Broadway Ste. D Denver, CO 80221",,,,,39.833924,-104.9881206,TRUE
USA,CO,Denver,Memphis Cue Bar,720-909-2215,"333 N. Broadway Denver, CO 80203",,6,,,39.7215644,-104.9877029,TRUE
USA,CO,Denver,Los Sierra's Bar,303-657-5920,"6762 Lowell Blvd. Denver, CO 80221",,4,,,39.8195682,-105.0341213,TRUE
USA,CO,Denver,Wynkoop Brewing Company,303-297-2700,"1634 18th St. Denver, CO 80202",,,,,39.7534202,-104.9985353,TRUE
USA,CO,Denver,Love Shack,303-426-6420,"7290 N Pecos St, Denver, CO 80221",,,,,39.8288909,-105.0056461,TRUE
USA,CO,Durango,El Rancho Tavern,970-749-1816,"975 Main Avenue Durango, CO 81301",,,,,37.2744059,-107.880764,TRUE
USA,CO,Englewood,Felt Billiards,720-266-6190,"101 W Floyd Ave #2421 Englewood, CO 80110",,16,,-1,39.656761,-104.9893368,TRUE
USA,CO,Evans,Lit'l Bit Bar and Grill,720-467-5381,"3620 35th Avenue Evans, CO 80620",,,,,40.3788562,-104.7335471,TRUE
USA,CO,Federal Heights,The Wreck Room Saloon,303-412-0257,"2695 W. 92nd Ave Federal Heights, CO 80260",,7,,,39.8639105,-105.0190779,TRUE
USA,CO,Fort Morgan,The Club Tap,970-441-0738,"212 Main Street Fort Morgan, CO 80701",,,,,40.2491724,-103.8012506,TRUE
USA,CO,Lakewood,Greenfield's Pool & Sports Bar,303-989-9820,"3355 S Yarrow St E101, Lakewood, CO 80227",,14,,,39.6545617,-105.0836832,TRUE
USA,CO,Littleton,The Mirage Sports Bar,303-979-9220,"8340 W Coal Mine Ave. Littleton, CO 80123",,,,,39.5942588,-105.090495,TRUE
USA,CO,Lone Tree,Fox & Hound,720-875-9161,"9239 Park Meadows Drive Lone Tree, CO 80124",,4,,,39.5559188,-104.8805349,TRUE
USA,CO,Pagosa Springs,Pagosa Bar,970-264-2749,"460 Pagosa St. Pagosa Springs, CO 81147",,2,,,37.2667587,-107.0113736,TRUE
USA,CO,Pueblo,A and D Billiards,(719) 250-1004,"1715 South Prairie Ave Pueblo, CO 81005",Ted Mauro,,,,38.2381508,-104.6440707,TRUE
USA,CO,Pueblo,Classic Q's,719-250-6983,"1715 South Prairie Avenue Pueblo, CO 81005",D'Layne Easton,9,,2,38.2381508,-104.6440707,TRUE
USA,CO,Pueblo West,Jimmy's Tavern,719-547-1515,"324 S McCulloch Blvd Pueblo West, CO 81007",,,,,38.321231,-104.745977,TRUE
USA,CO,Wheat Ridge,Longshots,303-403-0227,"4400 Ward Rd, Wheat Ridge, CO 80033",,,,,39.7787918,-105.1374537,TRUE
USA,CT,Naugatuck,Victoria Inn Cafe,203-910-2666,"23 Union St. Naugatuck, CT 06770",,,,,41.5015757,-73.0459467,TRUE
USA,CT,New London,Crown Billiards,860-439-1676,"264 S. Frontage Rd. New London, CT 06320",,,,,41.367706,-72.1171532,TRUE
USA,CT,Wallingford,Yale Billiards,203-631-2428,"169 N. Plaines Industrial Rd. Wallingford, CT 06492",,,,,41.4733238,-72.8187299,TRUE
USA,CT,West Haven,Us1 Billiards,(203) 848-1212,"1167 Boston Post Rd. West Haven, CT 06516",,,,,41.2809906,-72.9843089,TRUE
USA,DE,Dagsboro,Delmarva Billiards,302-927-0314,"32448 Royal Blvd Unit 2 Dagsboro, DE 19939",,,,,38.5410003,-75.2558441,TRUE
USA,DE,Georgetown,Milford Billiards,302-856-0991,"128 East Market Street Georgetown, DE 19947",,,,,38.691341,-75.38381,TRUE
USA,DE,Ocean View,SSPL,703-338-1992,"38840 Oyster Catcher Dr. Ocean View, DE 19970",,,,,38.5688656,-75.1107071,TRUE
USA,DE,Wilmington,Red White And Brew,302-275-2233,"106 Main St. Wilmington, DE 19804",,,,,39.7138678,-75.6447434,TRUE
USA,FL,Bradenton,Livingston's Billiards,941-753-6692,"4828 14th St. W Bradenton, FL 34207",,14,,12,27.454984,-82.5769922,TRUE
USA,FL,Bradenton,Naughty Monk Brewery,841-708-2966,"2507 Lakewood Ranch Blvd. Bradenton, FL 34211",,2,,,27.475244,-82.433086,TRUE
USA,FL,Brandon,Baluka Billiards & Lounge,813-681-7665,"2072 Badlands Dr. Brandon, FL 33511",,,,,27.9272585,-82.3158945,TRUE
USA,FL,Cape Coral,Southern Billiards,847-863-2567,"2138 Santa Barbara Blvd Cape Coral, FL 33991",,10,,2,26.6114764,-81.9745751,TRUE
USA,FL,Cape Coral,Diamond Billiards,239-573-7665,"1242 Pine Island Rd Cape Coral, FL 33991",,8,,12,26.6403081,-81.999677,TRUE
USA,FL,Casselberry,Clicks,407-678-9366,"1455 North Semoran Blvd. #291 Casselberry, FL 32707",,,,,28.5662917,-81.3103459,TRUE
USA,FL,Casselberry,The Green Parrot,321-947-2317,"280 State Rd. 436 Casselberry, FL 32707",,,,,28.6594729,-81.3350357,TRUE
USA,FL,Charlotte,Charlie's Pub,941-268-0551,"3496 North Tamiami Trail Port Charlotte, FL 33952",,,,,26.9796573,-82.0943072,TRUE
USA,FL,Clearwater,Breakers Billiards,727-531-9258,"1458 S. Belcher Rd. Clearwater, FL 33764",,,,,27.9438433,-82.7469072,TRUE
USA,FL,Clearwater,Crooked Cue Billiards,727-580-5709,"14100 US Hwy 19 Suite 127 Clearwater, FL 33764",,,,,27.899984,-82.727581,TRUE
USA,FL,Davie,Beyond Billiards,954-235-5625,"5705 S. University Drive Davie, FL 33328",,3,,,26.0496621,-80.2535203,TRUE
USA,FL,Daytona Beach,Waldo's Sports Pub & Billiards,386-760-7006,"2454 S Nova Rd. Daytona Beach, FL 32119",,,,,29.1560801,-81.0211681,TRUE
USA,FL,Dunedin,Stix Billiards,727-686-5746,"2676 Crystal Circle Dunedin, FL 34698",,,,,28.04654,-82.7566055,TRUE
USA,FL,Homosassa,Stixx Billiards,352-628-0432,"3171 S. Stonebrook Dr. Homosassa, FL 34448",,3,,,28.8156223,-82.5757075,TRUE
USA,FL,Homosassa,High Octane Billiards,352-794-6037,"1590 S. Suncoast Blvd. Homosassa, FL 34448",,,,,28.8389224,-82.5801577,TRUE
USA,FL,Jacksonville,9 Ball Heaven,904-683-2630,"2777 University Blvd W Ste. 14 Jacksonville, FL 32217",,8,,8,30.2614937,-81.6309164,TRUE
USA,FL,Jacksonville,Blanding Billiards,904-683-4933,"2044 Blanding Blvd. Jacksonville, FL 32210",,,,,30.2808534,-81.72668,TRUE
USA,FL,Jacksonville,Gator Coin,904-356-4301,"576 Woodruff Ave. Jacksonville, FL 32254",,,,,30.3199019,-81.7287434,TRUE
USA,FL,Jacksonville,Jim's Blanding Billiards,904-716-4841,"244 Blanding Blvd Jacksonville, FL 32210",,,,,30.1747761,-81.7451613,TRUE
USA,FL,Jacksonville,Mariannes Tournaments,904-576-3820,"875 N. Woodbridge Hallow Rd. Jacksonville, FL 32218",,,,,30.4425329,-81.6673396,TRUE
USA,FL,Jacksonville,Sunshine State ProAm Pool Tour,904-759-8421,"1513 Huffingham Rd. Jacksonville, FL 32216",,,,,30.294447,-81.6001017,TRUE
USA,FL,Kissimmee,Mad Hippo Saloon,203-395-7394,"2948 Vineland Rd. Kissimmee, FL 34746",,6,,,28.3346285,-81.4808896,TRUE
USA,FL,Lakeland,Wally's,863-618-9996,"1734 Moose Dr. Lakeland, FL 33801",,,,,28.0210612,-81.9089091,TRUE
USA,FL,Lantana,Paradise Billiards,561-508-4627,"5877 S. Congree Avenue Lantana, FL 33462",,,,,26.5888337,-80.0953224,TRUE
USA,FL,Largo,The Corner Pocket,727-330-7822,"12686 Starkey Rd. Largo, FL 33773",,,,,27.8880941,-82.762534,TRUE
USA,FL,Lecanto,Fraternal Order Of The Eagles 4272,609-221-9049,"F4272 Frank Wunder 2638 W Joerae Ct. Lecanto, FL 34461",,,,,28.7698829,-82.4773275,TRUE
USA,FL,Leesburg,Frank's Place,352-323-1989,"201 N 1st Street Leesburg, FL 34748",,,,,28.811625,-81.8759243,TRUE
USA,FL,Lynn Haven,The Hideaway Pub,850-527-2835,"4708 Highway 389 Lynn Haven, FL 32444",,,,,30.2343157,-85.6276535,TRUE
USA,FL,Miami,Sharp Shooters Billiards,305-596-0588,"7200 S.W. 117th Avenue Miami, FL 33183",,,,,25.7001963,-80.3827172,TRUE
USA,FL,Miami,K & K Billiards,305-960-7273,"1090 N. E. 79th Street Miami, FL 33138",,12,,3,25.8478628,-80.1742104,TRUE
USA,FL,Miami,K & K Billiard Club & Sports Bar,305-982-8355,"1090 NE 79th Street Miami, FL 33138",,,,,25.8478628,-80.1742104,TRUE
USA,FL,Ocala,Diamond Sports Bar,407-810-4697,"2911 NE Jacksonville Road Ocala, FL 34479",Doug Lily,,,,29.21565,-82.125223,TRUE
USA,FL,Ocala,Time Out Billiards,352-444-7665,"618 S Pine Ave. Ocala, FL 34471",,10,,,29.181523,-82.1416989,TRUE
USA,FL,Ocala,Boulevard Billiards,352-615-0088,"3741 E Silver Springs Blvd Ocala, FL 34470",,,,,29.2000961,-82.084622,TRUE
USA,FL,Okeechobee,Tin Fish,863-357-0722,"301 North Parrott Ave. Okeechobee, FL 34972",,,,,27.2460271,-80.8302669,TRUE
USA,FL,Okeechobee,Hammerheads,863-357-4745,"701 NE 3rd St. Okeechobee, FL 34972",,,,,27.250967,-80.832753,TRUE
USA,FL,Orange Park,Cue & Shisha,904-375-9058,"311 Blanding Blvd #10 Orange Park, FL 32073",,15,,1,30.1701961,-81.745799,TRUE
USA,FL,Orange Park,Park Avenue Billiards,904-215-1557,"714 Park Avenue Orange Park, FL 32073",,,,,30.1812966,-81.7032168,TRUE
USA,FL,Orlando,Clicks - Orlando,407-275-6064,"2524 S. Semoran Blvd. Orlando, FL 32822",,,,,28.5148997,-81.3112089,TRUE
USA,FL,Palm Bay,Poolies Billiards,321-951-1560,"1851 Palm Bay Rd NE Palm Bay, FL 32905",,,,,28.0357193,-80.6175147,TRUE
USA,FL,Palm Harbor,Strokers Sports Bar and Grill,917-355-9908 (Cell),"30901 US Highway 19 North Palm Harbor, FL 34684",,,,,28.0535591,-82.7380137,TRUE
USA,FL,Palm Harbor,Stix,727-937-9225,"38529 US Hwy 19 N, Palm Harbor, FL 34684",,,,,28.1218783,-82.7383176,TRUE
USA,FL,Panama City,Pasky Inc.,850-819-8007,"309 South Tyndall Pkwy Panama City, FL 32404",,,,,30.141698,-85.5907737,TRUE
USA,FL,Panama City Beach,Vic's Sports Bar,850-919-5413,"2727 Joan Ave Panama City Beach, FL 32408",,,,,30.172719,-85.7901488,TRUE
USA,FL,Pensacola,Cordova Lanes,850-477-2300,"2111 Airport Blvd Pensacola, FL 32504",,,,,30.4753132,-87.2042003,TRUE
USA,FL,Pensacola,Krazy 8 Billards,850-530-3900,"1707 West Fairfield Drive Pensacola, FL 32501",,,,,30.4448428,-87.2366684,TRUE
USA,FL,Pinellas Park,City Billiards,727-521-0858,"6200 62nd Avenue North Pinellas Park, FL 33781",,,,,27.8280125,-82.7206149,TRUE
USA,FL,Port St. Lucie,Harpers Billiards,772-237-4536,"337 SE Port St. Lucie Blvd. Port St. Lucie, FL 34953",,,,,27.2734437,-80.3404145,TRUE
USA,FL,Port St. Lucie,Shooters Billiards,772-215-2783 (Cell),"8934-8942 US1 Port St. Lucie, FL 34952",,22,,,27.3045879,-80.3067966,TRUE
USA,FL,Sanford,Racks Billiards Sports Bar and Grill,407-449-7665,"312 Entrance Rd N Sanford, FL 32771",,20,,,28.8082961,-81.3380077,TRUE
USA,FL,Seminole,Jesse's Bar CMsplace,727-392-1900,"10754 70th Ave Ste. D Seminole, FL 33772",,,,,27.8354157,-82.7881045,TRUE
USA,FL,South Daytona,Uncle Waldo's,386-212-4998,"2454 South Nova Road South Daytona, FL 32119",,,,,29.1560801,-81.0211681,TRUE
USA,FL,Spring Hill,Capone's Billiard's,352-688-9965,"10463 County Line Rd Spring Hill, FL 34609",,11,,,28.4348344,-82.5429316,TRUE
USA,FL,Stuart,Raxx Billiards,772-215-2783 (Cell),"1600 NW Federal Highway Stuart, FL 34995",,18,,,27.2248041,-80.2651532,TRUE
USA,FL,Summerfield,Spruce Creek Golf and Country Club,3523070696 Ext. 223,"13601 Del Webb Blvd Summerfield, FL 34491",,,,,29.0177407,-82.011208,TRUE
USA,FL,Tallahassee,Zingale Billiards & Sports Bar,850-524-6888,"1147 Apalachee Tallahassee, FL 32301",,,,,30.4363909,-84.2646288,TRUE
USA,FL,Tampa,The Billiard Fitter,813-416-2255,"4119 Gunn Hwy Suite 18 Tampa, FL 33618",,,,,28.0423109,-82.5100852,TRUE
USA,FL,Tampa,Repeal 18,813-486-8070,"9882 West Linebaugh Ave. Tampa, FL 33626",,,,,28.0438933,-82.5967276,TRUE
USA,FL,Tampa,Stixx Billiards Oldsmar,813-475-4697,"13918 W Hillsborough Ave, Tampa, FL 33635",,,,,28.0319676,-82.6464909,TRUE
USA,FL,The Villages,Villages Center Community,352-753-4022,"1071 Canal Street The Villages, FL 32162",,,,,28.9075462,-81.9745213,TRUE
USA,FL,Valrico,Ocho Blanco Billiards,913-689-8258,"112 Pierce Christie Dr. Valrico, FL 33594",,,,,27.9385454,-82.2604027,TRUE
USA,FL,Winter Park,A'int Missbehavin,407-672-0368,"1550 State Road 436 Winter Park, FL 32792",,,,,28.6238628,-81.314605,TRUE
USA,FL,Winter Park,Cue-Phoria Billiards Cafe,321-972-1867,"1810 Semoran Blvd. Ste. 132 Winter Park, FL 32792",,,,,28.5690194,-81.3115662,TRUE
USA,FL,Winter Park,The Pool Table Store,407-339-5686,"1786 State Road 436 Winter Park, FL 32792",,,,,28.618291,-81.3116388,TRUE
USA,FL,Zephyrhills,Jerry's Crystal Bar,813-469-1077,"5707 Gall Blvd Zephyrhills, FL 33542",,,,,28.2404457,-82.1857872,TRUE
USA,FL,Zephyrhills,"Main Street Billiards, LLC",815-607-0520,"38529 5th Ave. Zephyrhills, FL 33542",,,,,28.23501,-82.1794079,TRUE
USA,GA,Woodstock,Big Shot Billiards,678-445-7665,"101 Emma Ln. Ste. 104 Woodstock, GA 30189",,13,,4,34.0869892,-84.5478543,TRUE
USA,GA,LaGrange,Chalk It Up,706-882-9798room,"1872 Vernon Rd. LaGrange, GA 30240",,,,,33.0293748,-85.0698972,TRUE
USA,GA,Marietta,Cue's Billiards,770-425-1101,"3372 CAnton Rd. Ste. 140 Marietta, GA 30066",,,,,34.034154,-84.5262328,TRUE
USA,GA,Hinesville,Doodles Billiards,912-369-2211,"105 W General Screven Way Hinesville, GA 31313",,20,,,31.8412284,-81.5986867,TRUE
USA,GA,Rincon,Doodles Billiards Rincon,912-295-2536,"586 S Columbia Ave. Rincon, GA 31326",,,,,32.2695617,-81.2236699,TRUE
USA,GA,Kennesaw,Kennesaw Billiards,404-886-6534,"3600 Cherokee Street #107 Kennesaw, Georgia 30144",,4,,8,34.0417862,-84.6018319,TRUE
USA,GA,Loganville,Level Best Billiards,770-598-0550,2887 Highway 78 Suite 107 Loganville Ga 30052,,,,,33.830123,-83.8512012,TRUE
USA,GA,Augusta,Master Billiards,706-825-4254,"624 Stevens Crossing Augusta, GA 30907",,,,,33.540776,-82.0595688,TRUE
USA,GA,Atlanta,Mr. Cues Billiards,678-834-4727 (Cell),"3541 Chamblee Tucker Road Atlanta, GA 30341",,,,,33.8845865,-84.248292,TRUE
USA,GA,Kennesaw,Ozone Billiards,770-874-6181ex114,"890 Cobb Place Boulevard Kennesaw, GA 30144",,,,,34.012072,-84.575009,TRUE
USA,GA,Covington,Pockets Billiards,404-456-1444,"6185 Highway 278 NE Covington, GA 30014",,20,,4,33.6026303,-83.8450017,TRUE
USA,GA,Brunswick,Port City Billiards,912-262-1755,"4420 Altama Avenue, Suite 44 Brunswick, GA 31520",,,,,31.1942882,-81.4838063,TRUE
USA,GA,Augusta,"Prescott, Robbie",706-738-0866,"2834 Washington Road Augusta, GA 30909",,,,,33.5105101,-82.0335371,TRUE
USA,GA,Augusta,Rack and Grill,706-814-5673,"3801 Mike Padgett Hwy. Augusta, GA 30906",,,,,33.3603894,-81.9906788,TRUE
USA,GA,Martinez,Rack and Grill,706-288-4845,"304 Commerce Dr Martinez, GA 30907",,,,,33.5173377,-82.0715194,TRUE
USA,GA,Martinez,Rack and Grill,706-855-7534,"3481 Old Petersburg Rd. Martinez, GA 30907",,,,,33.5179961,-82.0802812,TRUE
USA,GA,Augusta,Robbie's Sports Club,706-738-0866 (Cell),"2834 Washington Rd. Augusta, GA 30909",,,,,33.5105101,-82.0335371,TRUE
USA,GA,Statesboro,Southern Billiards & Burgers,912-225-9887,"200 Lanier Dr Ste. 2 Stateboro, GA 30458",,,,,32.4132005,-81.7808809,TRUE
USA,GA,Hampton,Sticks Pool Room,770-897-2111 (Cell),"106A Woolsey Road Hampton, GA 30228",,,,,33.3819027,-84.2998752,TRUE
USA,GA,Villa Rica,Stix Tavern LLC,678-523-4272,"660 W. Bankhead Highway Villa Rica, GA 30180",,,,,33.7293696,-84.9370001,TRUE
USA,GA,Newnan,Swing and Billiard Etc.,770-252-2050,"19 Vanderbilt Pointe Way Newnan, GA 30265",,,,,33.3630173,-84.7186786,TRUE
USA,GA,Jonesboro,Tara Billiards,770-603-0116,"9625 South Main Street Jonesboro, GA 30236",,,,,33.4925346,-84.3392918,TRUE
USA,GA,Savannah,The Bar Bar,912-231-1910,"219 W Julian St. Savannah, GA 31401",,,,,32.0806313,-81.094664,TRUE
USA,GA,Macon,The Dawg House,478-256-8894,"634 Shurling Dr. Macon, GA 31211",,10,,1,32.8609567,-83.6133285,TRUE
USA,GA,Richmond Hill,The Jukebox Bar & Grill,912-756-6997,"3741 US Hwy. 17 Ste. 500 Richmond Hill, GA 31324",,,,,31.9318539,-81.3244268,TRUE
USA,GA,Bloomingdale,Twilight Bar & Grill,912-988-1580,"2805 Fort Argyle Rd. Bloomingdale, GA 31302",,4,,,32.079479,-81.370768,TRUE
USA,HI,Honolulu,Siam Paradise,(808) 312-1236,"1336 Dillingham Blvd. #2 Honolulu, HI 96817",,2,,,21.3237572,-157.8750375,TRUE
USA,HI,Honolulu,TJ's Sports Bar & Grill,(808) 427-2507,"600 Kapiolani Blvd. Honolulu, HI 96813",,,,,21.3032235,-157.8549526,TRUE
USA,HI,Honolulu,Velvet Touch Billiards,808-255-1005,"1415 Liholiho St Apt 707 Honolulu, HI 96822",,,,,21.3035286,-157.8407981,TRUE
USA,IA,Burlington,"Buddies, Inc.",319-752-6005,"2600 Madison Avenue Burlington, IA 52601",,,,,40.7798121,-91.1076321,TRUE
USA,IA,Cedar Rapids,2nd Ave. Corner Pocket,(319) 366-0979,"609 2nd Avenue SW Cedar Rapids, IA 52404",,10,,2,41.9727574,-91.6793758,TRUE
USA,IA,Clear Lake,Rookies Rockin Sports Bar,641-529-0306,"307 Main Ave. Clear Lake, IA 50428",,4,,,43.135926,-93.3815098,TRUE
USA,IA,Clinton,Legend's Sports Bar,(563) 243-4266,"2118 Harrison Dr. Clinton, IA 52732",,8,,2,41.8173637,-90.2375857,TRUE
USA,IA,Clive,The Rack Billiard Club,(515) 727-9067,"2249 NW 86th St. Clive, IA 50325",,16,,,41.6140469,-93.7357932,TRUE
USA,IA,Davenport,Sharkey's Billiards,(563) 359-7225,"2902 E Kimberly Rd. Davenport, IA 52807",,25,,,41.5563702,-90.5289481,TRUE
USA,IA,Davenport,Yoshis Bar And Filipino Canteen,319-961-6330,"831 W. 3rd St Davenport, IA 52802",,,,,41.5222285,-90.5857344,TRUE
USA,IA,Des Moines,Big Dog's Billiards,(515) 266-6100,"4510 NE 14th St. Des Moines, IA 50313",,,,,41.642446,-93.601168,TRUE
USA,IA,Dubuque,Cue Masters Billiards,563-542-2550 (Cell),"900 Central Avenue Dubuque, IA 52001",,,,,42.5024901,-90.6652866,TRUE
USA,ID,Boise,The Pocket,(208) 375-2474,"1487 N Curtis Rd. Boise, ID 83706",,15,,2,43.618001,-116.2544466,TRUE
USA,ID,Boise,Eastside Tavern,(208) 345-3878,"1228 S. Oakland Ave. Boise, ID 83706",,3,,,43.5973032,-116.2031349,TRUE
USA,ID,Boise,Quinn's Restaurant,(208) 514-1083,"1005 S. Vista Ave. Boise, ID 83705",,3,,,43.5950204,-116.2140306,TRUE
USA,ID,Coeur d'Alene,Paddy's Sports Bar,208-765-0701,"601 W. Appleway Ave. Coeur d'Alene, ID 83814",,,,,47.7010564,-116.7949145,TRUE
USA,ID,Hayden,Reverend Jonas Billiards,208-758-9999,"1305 E. Burnham Ave. Hayden, ID 83835",,,,,47.7650451,-116.7692125,TRUE
USA,ID,Idaho Falls,Pockets,208-525-9962 - Location,"905 E Lincoln Rd. Idaho Falls, ID 83401",,4,,,43.511732,-112.0133327,TRUE
USA,ID,Nampa,Kickback Bar,(208) 467-3409,"3116 Garrity Blvd. Nampa, ID 83687",,7,,,43.5878075,-116.5323241,TRUE
USA,ID,Nampa,Firehouse Sports Pub,208-863-3652 Cell,"423 E Karcher Rd. Nampa, ID 83687",,6,,,43.6048138,-116.56745,TRUE
USA,ID,New Plymouth,Double Diamond,(208) 278-9282,"109 W. Maple St. New Plymouth, ID 83655",,3,,,43.971415,-116.82027,TRUE
USA,ID,Pocatello,Rim Rock Bar And Grill,208-233-6789,"4037 N. Lower Rd. Pocatello, ID 83204",,,,,42.8197655,-112.3791326,TRUE
USA,ID,Pocatello,Office Bar & Grill,208-577-1028,"251 E Center St. Pocatello, ID 83201",,,,,42.8643396,-112.4466399,TRUE
USA,ID,Pocatello,Center Street Clubhouse,208-232-9654,"542 East Center Street Pocatello, ID 83201",,,,,42.8664446,-112.4440936,TRUE
USA,ID,Pocatello,Clydesdale Bar & Lounge,(208) 233-1841,"655 N. 5th Ave. Pocatello, ID 83204",,3,,,42.8707647,-112.448871,TRUE
USA,ID,Pocatello,The First National Bar,(208) 233-1516,"232 W. Center St. Pocatello, ID 83204",,,,,42.8625508,-112.4503539,TRUE
USA,ID,Pocatello,"Cue & Brews, LLC",208-709-0112,"249 East Center Street Pocatello, ID 83201",,6,,,42.8643034,-112.4466749,TRUE
USA,ID,Pocatello,Oasis Sports Bar,208-317-2398,"304 N. Main Street Pocatello, ID 83204",,,,,42.863859,-112.452313,TRUE
USA,ID,Pocatello,Idaho State University,208-282-3335,"921 South 8th Street Pocatello, ID 83209",,,,,42.8613521,-112.433097,TRUE
USA,ID,Twin Falls,The Pocket,208-733-9676,"1532 Kimberly Rd. Twin Falls, ID 83301",,,,,42.5480943,-114.4546864,TRUE
USA,IL,Algonquin,Twisted Rose,630-506-0842,"1130 S Main St. Algonquin, IL 60102",,,,,42.1574152,-88.2974264,TRUE
USA,IL,Alsip,Red Shoe Billiards,708-388-3700,"12009 South Pulaski Road Alsip, IL 60803",,,,,41.6733866,-87.7178708,TRUE
USA,IL,Anna,The Strike Zone,618-697-2398,"1616 Dogwalk Road Anna, IL 62906",,,,,37.4672395,-89.190991,TRUE
USA,IL,Arlington Heights,Arlington Lanes,847-255-6373,"3435 N Kennicott Ave. Arlington Heights, IL 60004",,10,,,42.1377993,-87.9942667,TRUE
USA,IL,Arlington Heights,Fox & Hound Smoke House & Tavern,847-590-9019,"910918 W Dundee Rd. Ste A01A03 Arlington Heights, IL 60004",,,,3,42.1398751,-87.9943587,TRUE
USA,IL,Ashmore,Down Street Bar,217-508-6611,"109 West Ashmore Ashmore, IL 61912",,,,,39.5340069,-88.0205927,TRUE
USA,IL,Aurora,Rudy's Place,630-621-7619,"900 Hill Avenue Aurora, IL 60505",,,,,41.7384066,-88.2875116,TRUE
USA,IL,Berwyn,Berwyn Tap Room,708-310-1915,"6330 West 16th Street Berwyn, IL 60402",,,,,41.858088,-87.778804,TRUE
USA,IL,Bloomingdale,Cesar's Sports Bar & Grill,630-582-2006,"185 E Lake St, Bloomingdale, IL 60108",,4,,,41.9585353,-88.0726314,TRUE
USA,IL,Bloomingdale,Ride the 9 Shooter's Lounge,309-662-1009,"503 N Prospect Rd. Bloomington, IL 61704",,,,,40.4856106,-88.9487932,TRUE
USA,IL,Boilingbrook,Kisat INC..,630-696-8456,"836 Barclay Dr. Boilingbrook, IL 60440",,,,,41.7065807,-88.1075136,TRUE
USA,IL,Breese,"Pokojski, Brian/Big Stix",618-526-7706,"8802 Old US 50 Breese, IL 62230",,,,,38.621636,-89.5220608,TRUE
USA,IL,Bridgeport,The Port,618-945-3400,"1170 Adams St. Bridgeport, IL 62417",,2,,,38.7159334,-87.7665262,TRUE
USA,IL,Buffalo Grove,Rack'em Up Chicago,847-541-2500,"312 McHenry Rd. Buffalo Grove, IL 60089",,,,,42.1586402,-87.9619106,TRUE
USA,IL,Carbondale,Chalky's,618-967-4343,"500 New Era Rd. Carbondale, IL 62901",,,,,37.7336937,-89.2469054,TRUE
USA,IL,Caseyville,Woody'z Pub and Grill,618-530-5412,"100 South Long Street Caseyville, IL 62232",,,,,38.6379802,-90.0252882,TRUE
USA,IL,Caseyville,Carol's Bridge Inn,618-344-3530,"519 North Main Street Caseyville, IL 62232",,8,,,38.6418809,-90.0200769,TRUE
USA,IL,Champaign,Jupiter's at the Crossing,217-366-8300,"2511 Village Green Pl. Champaign, IL 61822",,,,,40.0815785,-88.2966756,TRUE
USA,IL,Charleston,WB's Pub N Grub,217-549-5630,"409 7th Street Charleston, IL 61920",,,,,39.4958926,-88.1745282,TRUE
USA,IL,Chicago,Chris's Billiards,773-286-4714,"4639 N. Milwaukee Chicago, IL 60630",,,,,41.9650145,-87.7581219,TRUE
USA,IL,Chicago,Nick's Billiards,773-583-2011,"4445 N Pulaski Rd. Chicago, IL 60630",,,,,41.9619272,-87.7273513,TRUE
USA,IL,Chicago,Revel Bar Chicago,708-667-0037,"6169 N Northwest Hwy. Chicago, IL 60631",,1,,,41.9940301,-87.8013654,TRUE
USA,IL,Chicago,Mexico Pool Hall,,"4529 S. Ashland Ave. Chicago, IL 60609",,,,,41.8113084,-87.6647017,TRUE
USA,IL,Chicago,Just One More,708-516-4757,"1130 S Michigan Ave. Apt# 4304 Chicago, IL 60605",,,,,41.8685662,-87.624423,TRUE
USA,IL,Chicago Ridge,Lucky's Lounge,708-658-6927,"6605 W 95th St. Chicago Rodge, IL 60415",,2,,,41.7192934,-87.7851977,TRUE
USA,IL,Clinton,Breakers Bar & Grill,217-935-6503,"211 E Adams St. Clinton, IL 61727",,10,,,40.1520436,-88.9583676,TRUE
USA,IL,Countryside,Time Out Sports Bar & Grill,708-482-3222,"6025 La Grange Rd. Countryside, IL 60525",,2,,,41.7800002,-87.8677608,TRUE
USA,IL,Crestwood,Pocket Billiards,312-607-5315,"13420 South Cicero Crestwood, IL 60418",,,,,41.6485159,-87.7395135,TRUE
USA,IL,Creve Coeur,Famous City Billiards,309-981-3040,"210 N. Thorncrest Ave. Creve Coeur, IL 61610",,10,,3,40.6468216,-89.5991696,TRUE
USA,IL,Darien,Q Bar & Grill,630-768-9824,"8109 South Cass Darien, IL 60561",,8,,,41.740714,-87.9719922,TRUE
USA,IL,Decatur,Biggens Bar & Billiards,217-422-6360,"858 W Green St Decatur, IL.",,5,,,39.8487943,-88.9671546,TRUE
USA,IL,Decatur,Starship Billiard Parlor,217-629-8280,"3015 Grand Prix Drive Decatur, IL 62526",,14,,1,39.8783022,-88.9293424,TRUE
USA,IL,Des Plaines,Lee Street Games and Sports,847-345-1559,"1122 Lee St. Des Plaines, IL 60016",,,,,42.0326451,-87.8947641,TRUE
USA,IL,Downers Grove,Q Pub & Grill,630-971-0003,"2145 63rd St. Downers Grove, IL 60516",,,,,41.7712479,-88.036132,TRUE
USA,IL,East Greenup,Muddy Bottoms Bar and Grill,217-932-8135,"934 County Road 2100 East Greenup, IL 62428",,,,,39.3090499,-88.0814121,TRUE
USA,IL,Edwardsville,Grand Amusements,618-910-9226,"5204 Fox Cove Edwardsville, IL 62025",,,,,38.8491093,-89.9555142,TRUE
USA,IL,Glendale Heights,Q Bar Glendale Heights,630-893-9346,"2240 Bloomingdale Rd. Glendale Heights, IL 60139",,8,,,41.9396088,-88.0823153,TRUE
USA,IL,Glendale Heights,Sundown Inn Pub,630-510-0400,"1775 Bloomingdale Rd. Glendale Heights, IL 60139",,4,,,41.9236766,-88.0805173,TRUE
USA,IL,Godley,Stumble Inn,815-458-0538,"201 S. Kankakee St. Godley, IL 60407",,5,,,41.2366695,-88.2455479,TRUE
USA,IL,Grayslake,Shooter's Sports Bar & Billiards,847-922-4616,"1858 E Belvidere Rd, Grayslake, IL 60030",,8,,15,42.3394906,-88.0015537,TRUE
USA,IL,Jacksonville,Amvets Post 100,(217) 370-5892,"210 E Court St. Jacksonville, IL 62650",,,,,39.7349786,-90.2277585,TRUE
USA,IL,Joliet,Longshots Bar & Grill,815-953-4680,"1609 West Jefferson Street Joliet, IL 60435",,9,,,41.5232173,-88.1204903,TRUE
USA,IL,Joliet,Lety's Place,815-405-8689,"901 North Hickory Street Joliet, IL 60435",,,,,41.5400637,-88.0870555,TRUE
USA,IL,Lawrenceville,The Phoenix,618-707-2255,"810 12th St. Lawrenceville, IL 62439",,,,2,38.7281975,-87.6828639,TRUE
USA,IL,Lena,101 Billiards,815-541-8471,"101 Elm St. Lena, IL 61048",,,,8,42.380685,-89.8288092,TRUE
USA,IL,Lockport,"Diamond Sports Bar, Inc.",815-838-6605,"16529 W 159th St. Lockport, IL 60441",,,,,41.5962097,-88.0233863,TRUE
USA,IL,Metropolis,Boo's Burgers & Billiards,618-524-2991,"318 Scott St. Metropolis, IL 62960",,9,,3,37.1457598,-88.7223684,TRUE
USA,IL,Mokena,Legends Grill & Bar,708-995-7278,"9710 191st St. Mokena, IL 60448",,2,,,41.5441295,-87.8547443,TRUE
USA,IL,Mount Carmel,Comeaux Daiqiri Depot,618-240-4552 Cell,"319 West 9th St. Mount Carmel, IL 62863",,,,,38.4140989,-87.7684346,TRUE
USA,IL,New Lenox,"Kuchar Products, Inc.",815-405-3692,"12556 Harvey Drive New Lenox, IL 60451",,,,,41.4959342,-87.9217899,TRUE
USA,IL,Norridge,Mullen's Bar & Grill,708-452-3190,"8313 W Lawrence Ave. Norridge, IL 60706",,2,,,41.9656482,-87.8342915,TRUE
USA,IL,Oak Lawn,Demma's Bar & Grill,708-636-1240,"5805 W 87th St. Oak Lawn, IL 60453",,4,,,41.7338457,-87.7663003,TRUE
USA,IL,Oblong,Floyd's Place,618-554-3907,"134 S. Range St. Oblong, IL 62449",,,,,39.0009691,-87.9090581,TRUE
USA,IL,Oglesby,Bulldogs Bar,815-343-2425,"201 E Walnut Oglesby, IL 61348",,1,,,41.2949571,-89.0581491,TRUE
USA,IL,Park Forest,Sapphire Room,708-724-2602,"300 Victory Dr. Park Forest, IL 60466",,4,,5,41.4819095,-87.6797595,TRUE
USA,IL,Pekin,Koch Street Bar & Grill,309.264.3566,"208 Koch St. Pekin, IL 61554",,,,,40.5527108,-89.6623345,TRUE
USA,IL,Peoria,Racks on The Rocks,309-839-2609,"2800 West Farmington Road West Peoria, IL 61604",,13,,5,40.7039289,-89.6375037,TRUE
USA,IL,Peoria,"TE-J's Sports Connection, Inc.",309-208-9189,"3219 NE Adams Peoria, IL 61603",Jay,,,,40.7181661,-89.5588831,TRUE
USA,IL,Percy,Players Entertainment Inc.,618-927-1077,"209 W. Almond St. Percy, IL 62272",,,,,38.0152989,-89.6185985,TRUE
USA,IL,Quincy,Rack Daddy's,217-242-9096,"1400 S 28th St Quincy, IL 62301",,,,,39.9146159,-91.3715302,TRUE
USA,IL,Riverside,The Izaguirre Corp,708-692-4822,"421 Shenstone Rd. Riverside, IL 60546",,,,,41.8344779,-87.8058594,TRUE
USA,IL,Rockdale,Roc City Bar & Grill,815-730-1330,"508 Moen Ave, Rockdale, IL 60436",,2,,,41.5048964,-88.1139311,TRUE
USA,IL,Romeoville,Mongo McMichaels,630-739-1660,"1101 N Independence Blvd. Romeoville, IL 60446",,2,,,41.6649735,-88.0681135,TRUE
USA,IL,Romeoville,Stella's Bar & Grill,815-886-3640,"402 N Weber Rd. Romeoville, IL 60446",,,,,41.639065,-88.1249609,TRUE
USA,IL,Romeoville,Stone City Saloon,815-524-4704,"721 N Independence Blvd. Romeoville, IL 60446",,,,,41.6557077,-88.0788545,TRUE
USA,IL,Romeoville,Mickeys Grill & Pub,815-436-8853,"377 Budler Romeoville, IL 60446",,,,,41.6099775,-88.1528111,TRUE
USA,IL,Round Lake,Sharkys - Lakes Bowl,847-603-4400,"601 Rialroad Ave. Round Lake, IL 60073",,6,,,42.355283,-88.0974793,TRUE
USA,IL,Sandwich,Route 34 Pub & Grub,815-786-3861,"1201 E Church St. Sandwich, IL 60548",,5,,,41.6466096,-88.6055094,TRUE
USA,IL,Shorewood,Bedrocks,815-744-8408,"700 W Jefferson St. Shorewood, IL 60404",,6,,,41.522964,-88.2047462,TRUE
USA,IL,Springfield,Mowie's Cue,217-529-7616,"1277 Toronto Rd. Springfield, IL 62712",,4,,10,39.7145648,-89.6377052,TRUE
USA,IL,Springfield,Neilson's Billiards,217-989-1660,"2601 Taylor Avenue Springfield, IL 62703",,,,,39.7693447,-89.6184307,TRUE
USA,IL,Springfield,Starship Billiards Parlor,217-691-3803 (Cell),"23001 Stevenson Drive Springfield, IL 62703",,9,,6,39.7577738,-89.6251575,TRUE
USA,IL,St. Percy,Slammin' Sammy's Saloon,618-317-5451,"114 Russell St. Percy, IL 62997",,,,,37.9861395,-89.5881814,TRUE
USA,IL,Trenton,7 West Bar & Grill,618-401-2423 (cell),"7 West Broadway Trenton, IL 62293",,,,,38.6058227,-89.6826676,TRUE
USA,IL,Troy,McDill's Irish Pub,618-567-5464,"8925 Wheat Dr. Troy, IL 62294",,,,,38.7136647,-89.8483252,TRUE
USA,IL,Willisville,Triple S Enterprises,618-317-5451,"114 Russell St. Willisville, IL 62997",,,,,37.9861395,-89.5881814,TRUE
USA,IL,Willow Hill,Sky Saloon,618-553-6348,"21220 E. 500th Street Willow Hill, IL 62480",,,,,38.923545,-87.978536,TRUE
USA,IL,Worth,Racks Tap,708-827-5305,"10533 Southwest Hwy. Worth, IL 60482",,1,,,41.6999986,-87.7937761,TRUE
USA,IN,Anderson,The Billiards Club,765-610-4392,"124 E 7th St. Anderson, IN 46016",,8,,1,40.1091935,-85.6773877,TRUE
USA,IN,Bloomington,Bluetip Billiards,812-606-7253,"426 South College Ave. Bloomington, IN 47403",,12,,,39.1620693,-86.5356094,TRUE
USA,IN,Bloomington,Steve's Place,812-287-8152,"2510 W 3rd St. Bloomington, IN 47404",,6,,,39.1649996,-86.5688966,TRUE
USA,IN,Clarksville,Pool Club of Louisville,502-650-3090,"506 E Lewis & Clark Parkway Clarksville, IN 47131",,,,,38.311105,-85.7662841,TRUE
USA,IN,Cloverdale,Cataract Lake Lodge,765-795-7300 Location,"4779 State Highway 42 Cloverdale, IN 46120",,,,,39.4566971,-86.8573619,TRUE
USA,IN,Elkhart,Overtime Bar,574-675-9140,"30107 Old US 33 Elkhart, IN 46516",,8,,,41.6873832,-85.973517,TRUE
USA,IN,Evansville,River City Eagles,812-422-2956,"1824 W Franklin St. Evansville, IN 47712",,4,,,37.9798388,-87.5918261,TRUE
USA,IN,Evansville,Bob's Lounge,812-425-4929,"907 N Fares Ave. Evansville, IN 47711",,2,,,37.9861673,-87.5427726,TRUE
USA,IN,Evansville,KC's Corner Pocket,812-428-2255,"1819 N Fulton Ave. Evansville, IN 47710",,9,,,37.9950722,-87.5805569,TRUE
USA,IN,Evansville,Break Time Bar & Grill,812-602-1756,"1323 S barker Ave. Evansville, IN 47712",,3,,,37.9622919,-87.610415,TRUE
USA,IN,Evansville,Doc's,812-401-1201 (Cell),"1305 Stringtown Road Evansville, IN 47711",,,,,37.9897293,-87.5580097,TRUE
USA,IN,Evansville,Piston's Bar,812-449-8358,"2131 West Franklin Street Evansville, IN 47712",,,,,37.9808436,-87.5970255,TRUE
USA,IN,Fishers,The Main Event,317-413-6644,"8932 East 96th Street Fishers, IN 46037",,,,,39.9278491,-86.0107621,TRUE
USA,IN,Fort Wayne,Corner Pocket,260-492-7665,"3215 St. Joe Center Rd. Fort Wayne, IN 46835",,18,,3,41.1349441,-85.1010609,TRUE
USA,IN,Hammond,Angel Games,,"443 Mulberry Street Hammond, IL 46324",,,,,41.5912319,-87.5164964,TRUE
USA,IN,Indianapolis,Main Street Entertainment,,Indianapolis,,2,,,39.768403,-86.158068,TRUE
USA,IN,Indianapolis,Kip's Pub,317-578-2146,"9546 Allisonville Rd. Indianapolis, IN 46520",,16,,,39.9257539,-86.0692487,TRUE
USA,IN,Indianapolis,John Wayne's Pub & Eatery,317-882-8124,"2367 E Stop 11 Rd. Indianapolis, IN 46227",,10,,4,39.6496942,-86.1206978,TRUE
USA,IN,Indianapolis,10th Street Pub,317-897-1010,"10050 E 10th St. Indianapolis, IN 46229",,5,,,39.7831337,-85.9889123,TRUE
USA,IN,Indianapolis,Brickyard Billiards,317-248-0555,"6445 W Washington St. Indianapolis, IN 46241",,9,,9,39.7439327,-86.2734695,TRUE
USA,IN,Kokomo,Spanky's,574-727-1810,"1321 N. Washington Kokomo, IN 46901",,8,,4,40.4983154,-86.1339622,TRUE
USA,IN,Lafayette,Hideaway Bar & Grill,765-586-4392,"3269 Teal Road Lafayette, IN 47905",,,,,40.3943656,-86.8591761,TRUE
USA,IN,Lafayette,Purdue University,765-494-8904,"101 N. Grant Street West Lafayette, IN 47907",,,,,40.4245495,-86.912646,TRUE
USA,IN,Linton,The Palace Bar,812-239-8291,"90 W. Vincennes Street Linton, IN 47441",,,,,39.0342951,-87.1671609,TRUE
USA,IN,Mitchell,Mitchell Community Center,812-583-4437,"101 Tom Green Dr. Mitchell, IN 47446",,,,,38.7328304,-86.4736019,TRUE
USA,IN,Muncie,The New Anchor Lounge,765-702-3261,"2900 S Monroe St. Muncie, IN 47302",,,,,40.1681547,-85.3803493,TRUE
USA,IN,New Castle,New Castle Roadhouse,765-465-5696,"501 Fosters Way New Castle, IN 47362",,,,,39.9146315,-85.3403759,TRUE
USA,IN,Orland,John Boys Pool Hall,260-668-6208,"5235 N. State Rd 327 Orland, IN 46776",,,,,41.7308339,-85.1712939,TRUE
USA,IN,Osceola,Gina's Far East Lounge,574-329-5148,"55581 Ash Rd. Osceola, IN 46561",,4,,3,41.6873425,-86.0619216,TRUE
USA,IN,Peru,Peru Moose Family Center #249,765-473-4594,"110 North Broadway Peru, IN 46970",,,,,40.7554672,-86.0711998,TRUE
USA,IN,Terre Haute,Cranky's,812-236-1877,"2155 N. 13th Street Terre Haute, IN 47804",,,,,39.4914886,-87.3975079,TRUE
USA,IN,Terre Haute,Break Time Billiards,812-230-0107,"2155 N 13th St. Terre Haute, IN 47804",,7,,5,39.4914886,-87.3975079,TRUE
USA,IN,Terre Haute,Big Shooter's,812-466-6266,"2938 N 16th St. Terre Haute, IN 47804",,,,,39.5019314,-87.3910344,TRUE
USA,KS,Basehor,Heroes Billiards,913-671-9400,"15518 Pinehurst Drive Basehor, KS 66007",Melanie Taylor,,,,39.1157066,-94.9404081,TRUE
USA,KS,Junction City,Fat Toad Billiards,(785) 579-6465,"741 West 6th Junction City, KS 66441",,8,,2,39.0279113,-96.8427632,TRUE
USA,KS,Lawrence,Empire Bar and Billiards,785-550-3825 (Cell),"925 Iowa Street Suite P Lawrence, KS 66049",,,,,38.967263,-95.2624213,TRUE
USA,KS,Olathe,Shooters - Olathe,(913) 780-5740,"810 W Highway 56 Olathe, KS 66061",,,,,38.8118935,-94.8911395,TRUE
USA,KS,Salina,Hank's Tavern,785-826-0779,"116 North Broadway Salina, KS 67401",,,,,38.8412576,-97.6247801,TRUE
USA,KS,Salina,Sunset Billiards,(785) 826-9992,"1215 W Crawford St. Salina, KS 67401",,,,,38.8259884,-97.6242411,TRUE
USA,KS,Shawnee,Precise Billiards,816-455-8383,"5412 Quivira Road Shawnee, KS 66216",,,,,39.0305111,-94.7242324,TRUE
USA,KS,Topeka,Breakers Sports Bar & Grill,(785) 272-1513,"8249 SW 10th Ave. Topeak, KS 66615",,,,,39.04944,-95.8143709,TRUE
USA,KS,Topeka,Boulevard Billiards - KS,785-393-3456,"4700 SW Topeka Blvd Topeka, KS 66609",,,,,38.9606852,-95.6871096,TRUE
USA,KS,Topeka,Breakers - KS,785-272-1513,"8249 SW 10th Ave. Topeka, KS 66615",,,,,39.04944,-95.8143709,TRUE
USA,KS,Wichita,Club Billiards,316-265-2293,"925 West Douglas Avenue Wichita, KS 67213",,10,,,37.6837103,-97.3515081,TRUE
USA,KS,Wichita,Side Pockets Wichita,(316) 729-4000,"614 S. Tyler Rd. Wichita, KS 67209",,,,,37.6734093,-97.4421496,TRUE
USA,KS,Wichita,Fox & Hound Restaurant Group,972-437-4225,"1551 N. Waterfront Parkway Suite 310 Wichita, KS 67206",,,,,37.7037608,-97.2329255,TRUE
USA,KY,Phelps,Kick Shot Billiards,(859) 647-7468,"5900 Centennial Cir, Florence, KY 41042",,7,,4,39.0147645,-84.6693916,TRUE
USA,KY,Boaz,Rockers Bar & Grill,270-994-6677 (Cell),"7725 Old Highway 45S Boaz, KY 42027",Rick Wray,,,,36.8856121,-88.6344933,TRUE
USA,KY,Bowling Green,Cue Time,270-782-3740,"532 Three Springs Rd. Bowling Green, KY 42104",,,,,36.9342497,-86.4213802,TRUE
USA,KY,Bowling Green,Cue Time Cocktails & Billiards,270-782-3740,"532 Three Springs Rd. Bowling Green, KY 42104",,,,,36.9342497,-86.4213802,TRUE
USA,KY,Campbellsville,Rack & Cue,(270) 465-5918,"207 S. Columbia Ave Campbellsville, KY 42718",,,,,37.3377389,-85.344834,TRUE
USA,KY,Campbellsville,Rack & Cue,270-403-1334,"207 S. Columbia Ave. Campbellsville, KY 42718",,,,,37.3377389,-85.344834,TRUE
USA,KY,Central City,Bully's Rack And Cue,270-543-3789,"105 E Reservoir Ave Central City, KY 42330",,,,,37.2956533,-87.127072,TRUE
USA,KY,Covington,Legend's Bar,859-581-4140,"3530 Decoursey Ave. Covington, KY 41015",,,,,39.0488646,-84.5029234,TRUE
USA,KY,Dry Ridge,Moonbird Bar,859-393-6035,"100 Arbor Drive Dry Ridge, KY 41035",,,,,38.6795353,-84.5874092,TRUE
USA,KY,Florence,1st and 10 Sports Bar,859-817-0664,"10358 Dixie Hwy. Florence, KY 41042",,2,,,38.9457702,-84.6218714,TRUE
USA,KY,Florence,Breaker's Grill,859-918-5110,"8147 Mall Rd. Florence, KY 41042",,15,,,38.9829965,-84.6517951,TRUE
USA,KY,Florence,Muggbees,859-371-9766,"8405 US Highway 42 Florence, KY 41042",,2,,,38.9786021,-84.6541398,TRUE
USA,KY,Georgetown,Kaizen Billiards Club,502-735-9019,"401 Outlet Ctr Dr. Ste 150 Georgetown, KY 40324",,8,,5,38.2180568,-84.5372903,TRUE
USA,KY,Hagerhill,Murphy's Wholesale,606-789-6858,"4694 KY-321 Hagerhill, KY 41222",,4,,,37.7793215,-82.7928927,TRUE
USA,KY,Lexington,Kelly's Pub,859-492-9911,4889 Pleasant Grove Road Lexington KY 40515,,,,,37.9555027,-84.4745832,TRUE
USA,KY,Lexington,The Cue Club,859-619-7273,"140 Moore Drive Lexington, KY 40503",,12,,3,37.999833,-84.5223418,TRUE
USA,KY,Louisville,"Day Ferguson & Ferguson, LLC",812-725-2484 - Kyle,"630 Barret Ave. Louisville, KY 40204",,,,,38.2461004,-85.7328914,TRUE
USA,KY,Louisville,Diamond Pub & Billiards,859-797-1960 - Norm Wilson,"3814 Frankfort Ave. Louisville, KY 40207",,6,,2,38.2527664,-85.6564469,TRUE
USA,KY,Louisville,Gilbert's Bar & Grill,502-448-7365,"4950 Terry Rd. Louisville, KY 40216",,,,,38.1775232,-85.8625547,TRUE
USA,KY,Louisville,Jock's Sports Bar,502-491-1199,"3423 Breckenridge Lane Louisville, KY 40220",,,,,38.1986522,-85.6223362,TRUE
USA,KY,Louisville,Louisville Billiards Club,502-491-3810,"5404 Bardstown Rd. Louisville, KY 40291",,,,,38.1665799,-85.6032883,TRUE
USA,KY,Louisville,Martin's Tavern,502-775-5539,"1614 Dixie Hwy Louisville, KY 40210",,,,,38.2268718,-85.7913497,TRUE
USA,KY,Louisville,New Direction Bar & Grill,502-243-8429,"2630 Chamberlain Louisville, KY 40245",,,,,38.289561,-85.5149424,TRUE
USA,KY,Louisville,Prime Time Cafe,502-333-0719,"7017 Global Dr. Louisville, KY 40258",,,,,38.1406825,-85.8881366,TRUE
USA,KY,Louisville,R Place Pub,502-425-8516,"9603 Whipps Mill Rd. Louisville, KY 40242",,3,,,38.2682373,-85.579268,TRUE
USA,KY,Louisville,Railyard Billiards & Pub,502-618-4033,"630 Barret Ave. Louisville, KY 40204",,,,,38.2461004,-85.7328914,TRUE
USA,KY,Louisville,S&B's Billiards,606-260-7442,"7045 S. US Hwy 25 Corbin, KY 40447",,,,1,37.4672223,-84.0378894,TRUE
USA,KY,Louisville,Smiley's Pocket LLC,502-418-6021,"2124 South Preston Street Louisville, KY 40217",,,,,38.2166653,-85.7451751,TRUE
USA,KY,Louisville,Spectators Sports Bar & Grill,502-797-3916,"5530 New Cut Rd. Louisville, KY 40214",,,,,38.1434033,-85.7758352,TRUE
USA,KY,Louisville,The Barret Bar,502-269-8571,"1012 Barret Ave. Louisville, KY 40204",,,,,38.2359723,-85.7281622,TRUE
USA,Ky,Louisville,The Fox Den,502-494-8094,"3814 Frankfort Ave Louisville, KY 40207",,,,,38.2527664,-85.6564469,TRUE
USA,KY,Morehead,Frankie's Plaza,606-207-0818,"540 Fraley Drive Morehead, KY 40351",,,,,38.1897201,-83.4742766,TRUE
USA,KY,Mount Sterling,Billy Macks Billard,859-497-0105,"213 Windsor Dr. Mount Springs, KY 40353",,,,,38.0477704,-83.9398986,TRUE
USA,KY,Owensboro,Golden's Hometown Diner & Pool Hall,270-231-8054,"1846 Triplett St/ Owensboro, KY 42303",,2,,,37.7579376,-87.1044413,TRUE
USA,KY,Owensboro,Rocky's Bar & Grill,270-993-3895 (cell),"819 Crittenden Street Owensboro, KY 42303",,,,,37.7681917,-87.1067838,TRUE
USA,KY,Paducah,Cheer's,270.556.2804,"185 County Park Rd. Paducah, KY 42001",,,,,37.0867106,-88.6621442,TRUE
USA,KY,Paducah,Driftwood Lounge,270-210-4117 (Cell),"3535 Clark's River Road Paducah, KY 42003",,,,,37.0100528,-88.5758574,TRUE
USA,KY,Russell Springs,Laker Billiards,270-866-2885,"618 Main St. Russell Springs, KY 42642",,,,,37.0560817,-85.0881533,TRUE
USA,KY,West Liberty,Jenkin's One Stop,606-522-3717,"8574 Highway 437 West Liberty, KY 41472",,,,,37.9214758,-83.2596216,TRUE
USA,KY,Wilder,Top 10 Sports Bar,859-360-5095,"1412 Gloria Terrell Dr. Wilder, KY 41076",,4,,,39.0086774,-84.4704418,TRUE
USA,KY,Williamson,Jump Shot Billiards,606-225-5746 (Jason Cell),"148 Appalachian Plaza South Williamson, KY 41503",Jason Casey,,,,37.6685812,-82.2771408,TRUE
USA,LA,Baldwin,M and M Billiards,337-578-2274,"208 T. J. Hetcherson St. Baldwin, LA 70514",,,,,29.8346017,-91.5470257,TRUE
USA,LA,Bastrop,Skeeters,318-237-5611,"3482 New Monroe Road Bastrop, LA 71220",,,,,32.774783,-91.949976,TRUE
USA,LA,Baton Rogue,Bayou Billiards,225-315-4789 - Cell,"10090 Florida Blvd. Baton Rouge, LA 70815",,,,,30.4556659,-91.0712434,TRUE
USA,LA,Baton Rogue,Chance's Billiards,225-366-6360,"3030 S. Sherwood Forest Blvd Baton Rouge, LA 70816",,,,,30.4251056,-91.0525111,TRUE
USA,LA,Bossier City,Eddie's Tavern,713-614-0099,"1701 Old Minden Road Bossier City, LA 71111",,,,,32.5169888,-93.7182833,TRUE
USA,LA,Bossier City,Goodtimes Billiards,318-584-7037,"2648 Barksdale Blvd. Bossier City, LA 71112",,,,,32.5029285,-93.6957454,TRUE
USA,LA,Breaux Bridge,Bubba's Sports Bar,337-442-6960,"551 W. Mills Ave Breaux Bridge, LA 70517",,7,,,30.273916,-91.9205538,TRUE
USA,LA,Breaux Bridge,Droke's Diamond Mine,337-414-6484,"551 W Mills Ave. Breaux Bridge, LA 70517",,7,,,30.273916,-91.9205538,TRUE
USA,LA,Chalmette,"Lacy's Cue, LLC",985-640-1565,"701 West Judge Perez Drive Chalmette, LA 70043",,15,,12,29.9450512,-89.9682847,TRUE
USA,LA,Covington,Wherehouse Bar,985-327-5182,"1105 N Collins Blvd. Covington, LA 70433",,8,,,30.4877043,-90.0947928,TRUE
USA,LA,Gretna,Redd's Place,310-283-8824,"505 Gretna Boulevard Suite #9 Gretna, LA 70053",,,,,29.8986186,-90.0468063,TRUE
USA,LA,Gretna,Gerry's Place,225-216-5395,"1096 Behrman Highway Gretna, LA 70056",,,,,29.8838824,-90.0202237,TRUE
USA,LA,Hammond,Shooter's Billiards & Grill,985-956-7057,"1306 South Morrison Blvd. Hammond, LA 70403",,12,,1,30.4866956,-90.4832276,TRUE
USA,LA,Hammond,The NightKap,985-956-7474,"42309 South Morrison Blvd. Hammond, LA 70403",,12,,1,30.4740156,-90.4833501,TRUE
USA,LA,Harvey,Landing Lounge,504-348-0528,"500 Destrehan Ave. Harvry, LA 70058",,,,,29.9054913,-90.084131,TRUE
USA,LA,Henderson,The Blackpool,337-789-2284 - Cell,"1217A Henderson Highway Henderson, LA 70517",,,,,30.314766,-91.813871,TRUE
USA,LA,Houma,Double Hill Bar and Grill,504-615-6353 (Cell),"9892 East Main Street Houma, LA 70363",,7,,,29.5832862,-90.6634085,TRUE
USA,LA,Houma,Uptown Sports,985-855-5762 (Cell),"7812 Main St. Houma, LA 70360",,,,,29.5966484,-90.7237715,TRUE
USA,LA,Houma,Rickochet Billiards (Uptown Sports),985-876-9605,"7812 Main St. Houma, LA 70360",,9,,,29.5966484,-90.7237715,TRUE
USA,LA,Jefferson,Buffalo's Billiards,504-835-0173,"5015 Bloomfield Street Jefferson, LA 70121",,15,,16,29.9613363,-90.1808439,TRUE
USA,LA,Kenner,Corner Pocket,504-812-3743,"2424 Williams Blvd. Suite H Kenner, LA 70062",,6,,3,30.0001199,-90.2402215,TRUE
USA,LA,LaFayette,McMillian's Pub,337-235-9965,"2905 E Simcoe St. Lafayette, LA 70501",,3,,,30.2217351,-91.9883481,TRUE
USA,LA,LaFayette,Dixie Phonograph LLC,337-235-7487,"P.O. Box 51171 Lafayette, LA 70505",,,,,30.204687,-92.0167267,TRUE
USA,LA,Leesville,Club Zydeco,337-238-9692,"11868 Lake Charles Highway Leesville, LA 71446",,,,,31.090915,-93.2711086,TRUE
USA,LA,Marrero,The Break Room,504-621-4941,"6901 Westbank Expressway Marrero, LA 70072",,14,,3,29.8929912,-90.1240824,TRUE
USA,LA,Marrero,Side Pocket Bar and Grill,504-628-2745 (Cell),"5601 4th Street Marrero, LA 70072",,,,,29.8987564,-90.1068511,TRUE
USA,LA,Matairie,Crescent City,504-319-8392,"307 Houma Blvd. Metaire, LA 70001",,,,,29.9775831,-90.1746925,TRUE
USA,LA,Matairie,Big & Easy Bar,504-250-3856,"4124 Hastings Street Matairie, LA 70002",,,,,30.0125376,-90.1790151,TRUE
USA,LA,Metairie,Causeway Grill,504-838-9128,"2800 N. Causeway Blvd. Metairie, LA 70002",,,,,30.0021787,-90.1557825,TRUE
USA,LA,Metairie,Whitey's,504-833-9122,"3764 Derbigny St. Metairie, LA",,,,,29.9766378,-90.1669556,TRUE
USA,LA,Monroe,Downtown Billiards,318-348-2888 Luis,"524 Desiard St. Monroe, LA 71201",,,,,32.5040955,-92.1131628,TRUE
USA,LA,Morgan City,Pool Do's Sports Bar,281-216-7848,"7889 Hwy 182 E. Morgan City, LA 70380",,,,,29.6935908,-91.1728366,TRUE
USA,LA,New Iberia,Emerald Billiards,337-319-0530,"2511 West Old Spanish Trail New Iberia, LA 70560",,,,,30.0272673,-91.8399867,TRUE
USA,LA,New Iberia,Shane's Billiard Supply,337-352-0211,"4705 Coteau Road New Iberia, LA 70560",,,,,30.0505617,-91.949594,TRUE
USA,LA,New Orleans,Voodoo Two,504-606-7499,"330 Carondelet Street New Orleans, LA 70130",,,,,29.9512331,-90.0712842,TRUE
USA,LA,Pearl River,Gator's Daiquiris,985-788-6644,"64380 HWY 41 Suite A Pearl River, LA 70452",,4,,,30.3670856,-89.7583273,TRUE
USA,LA,Ponchatoula,Stray Cats,985-778-1870 (Cell),"138 North 6th Street Ponchatoula, LA 70454",,,,,30.4394039,-90.4428486,TRUE
USA,LA,Shreveport,Riverfront Billiards,318-617-6365 (Mike),"924 Commerce Shreveport, LA 71101",,,,,32.5120704,-93.7424682,TRUE
USA,LA,Slidell,Mr. Cs,985-265-4329,"1428 Gause Blvd. Slidell, LA 70458",,2,,,30.285416,-89.7593723,TRUE
USA,LA,Slidell,Kappy's Daiquiri & Sports Bar,985-643-1260,"1428 Gause Blvd # M Slidell, LA 70458",,4,,,30.285416,-89.7593723,TRUE
USA,LA,Slidell,Southern Bayou Enterprise,,"155 Robert Street Slidell, LA 70458",,,,,30.2726168,-89.7842716,TRUE
USA,LA,Slidell,Two Sister's Billiards & Cafe,985-781-0059,"960 E I-10 Service Rd. Slidell, LA 70461",,5,,,30.2843563,-89.7483646,TRUE
USA,LA,Thibodaux,CueSports,985-387-2066,"380 W 6th St. Thibodaux, LA 70301",,6,,,29.7952894,-90.8225501,TRUE
USA,LA,Thibodaux,Thibodaux Cue Sports,985-228-4996,"527 Jackson Street Thibodaux, LA 70301",,,,,29.7954482,-90.8222766,TRUE
USA,LA,Thibodeaux,Longshotz,985-860-3213,"1804 Highway 3185 Thibodaux, Louisiana 70301",,,,,29.784787,-90.858478,TRUE
USA,LA,West Monroe,The Arena,318-669-9969,"1411 Thomas Road West Monroe, LA 71292",,24,,4,32.4894186,-92.1553498,TRUE
USA,MA,Ayer,The Billiards Cafe,978-772-7665,"39 Main Street Ayer, MA 01432",Roy Pastor,,,,42.5597753,-71.5884832,TRUE
USA,MA,Fall River,Rack 'Em Up Billiards,(508) 679-1942,"129 Griffin St. Fall River, MA 02724",,10,,5,41.688625,-71.1724228,TRUE
USA,MA,Malden,Amazin Billiards,(603) 864-0192,"40 Faulkner St. Malden, MA 02148",Mazin Shooni,,,,42.4299941,-71.0558622,TRUE
USA,MA,Medford,Boston Billiards,617-625-2718,"90 Sagamore Ave. Medford, MA 02155",Steve Kelly,,,,42.4237752,-71.1413849,TRUE
USA,MA,Northampton,Packards Restaurant,(413) 584-5957,"14 Masonic Street Northampton, MA 01060",Bob McGovern,,,,42.3181269,-72.6333128,TRUE
USA,MD,Bowie,Center Pocket,301-613-0456 - Taseen,"4931 Tesla Drive, Unit H Bowie, MD 20715",Taseen Abdulbarr,,,,38.9564259,-76.7084886,TRUE
USA,MD,Cambridge,Choptank Bowling & Billiards,(410) 901-1212,"1200 Goodwill Ave. Cambridge, MD 21613",,14,,2,38.5581904,-76.0730029,TRUE
USA,MD,Cambridge,Great Slates,443-521-2700 (cell),"732 Cambridge Plaza Cambridge, MD 21613",John Moody,,,,38.5607083,-76.0638758,TRUE
USA,MD,Capitol Heights,Quball 1,(301) 808-7700,"7945 Central Avenue Capitol Heights, MD 20743",Larry Steel,,,,38.88871,-76.8679747,TRUE
USA,MD,Chesapeake Beach,American Legion #206,(443) 949-5602,"3330 Chesapeake Beach Rd Chesapeake Beach, MD 20732",Les Griffith,,,,38.6985433,-76.5444429,TRUE
USA,MD,Chestertown,Backyard Buddy,410-708-4280,"23915 Ricauds Branch Road Chestertown, MD 21620",Roger Pinder,,,,39.1877343,-76.1421873,TRUE
USA,MD,Chestertown,Blue Bird Tavern,443-480-1036,"512 Washington Ave. Chestertown, MD 21620",Patricia Lewis,,,,39.2218123,-76.0691281,TRUE
USA,MD,Crofton,Moni's Place,410-721-6801,"1641 Route 3 North Crofton, MD 21114",Marion Emrick,,,,38.9929645,-76.7018362,TRUE
USA,MD,Elkridge,Triple Nines Bar & Billiards,(410) 799-1818,"7540 Washington Blvd. Elkridge, MD 21075",,,,,39.1793785,-76.7724247,TRUE
USA,MD,Essex,Schultz's Crab House,410-458-2187,"1732 Old Eastern Ave, Essex, MD 21221",Steve McKinney,,,,39.321914,-76.4470408,TRUE
USA,MD,Gaithersburg,7 Billiards Shady Grove,(240) 907-2025,"15966 Shady Grove Rd. Gaithersburg, MD 20877",,,,9,39.1182591,-77.184998,TRUE
USA,MD,Gaithersburg,Moonlight Bar,301-357-6837,"8035 Snouffer School Road Gaithersburg, MD 20879",Raphael Rodriguez,,,,39.1612346,-77.1629858,TRUE
USA,MD,Glen Burnie,Brews & Cues on the Boulevard,410-761-6161,"7954 Baltimore Annapolis Boulevard Glen Burnie, MD 21060",Tony Manning,6,,,39.1351226,-76.5862964,TRUE
USA,MD,Hagerstown,Breakaway II,240-674-9745cell,"13726 Pennsylvania Ave. Hagerstown, MD 21742",Paul Harp,5,,,39.6906898,-77.7215616,TRUE
USA,MD,Hyattsville,Mi Patria Restaurant,202-486-5261,"5906 Riggs Rd Hyattsville, MD 20783",Selvin Guitierrez,,,,38.9627833,-76.9937195,TRUE
USA,MD,Laurel,B & B Billiards Inc.,301-483-8644,"3249 Fort Meade Road Laurel, MD 20724",Robert Barrow,,,,39.0907844,-76.7770595,TRUE
USA,MD,Laurel,The Bank Shot,301-483-8644,"3249 Laurel Fort Meade Rd. Laurel, MD 20724",Robert Barrow,17,,3,39.0908009,-76.7770225,TRUE
USA,MD,Leonardtown,Action Lounge & Billiards,(240) 309-4031,"25470 Point Lookout Rd. Unit F Leonardtown, MD 20650",Matthew Suite,11,,3,38.2996906,-76.638654,TRUE
USA,MD,Parkville,Top Hat Cue Club,410-665-1906,"8809 Satyr Hill Road Parkville, MD 21234",Beth Rembert,,,,39.4003419,-76.5448041,TRUE
USA,MD,Perry Hall,Charlie's Pro Shop,443-414-1580,"20 Bangert Ave. Perry Hall, MD 21128",Charles Fleming,,,,39.4103656,-76.4289889,TRUE
USA,MD,Sudlersville,Lena's Bar and Grill,410-708-7694,"5124 Sudlersville Road Sudlersville, MD 21668",Lean Reny,,,,39.1915876,-75.8306758,TRUE
USA,MD,Wheaton,American Legion #268,(202) 246-6288,"11225 Fern St. Wheaton, MD 20902",Scott Schlesenger,,,,39.0398583,-77.0492954,TRUE
USA,MD,White Plains,Jimmie's Paddock,240-419-9648,"PO Box 600 White Plains, MD 20695",Melissa Mills,,,,38.5911751,-76.9423672,TRUE
USA,ME,Banger,Rack City Billiards,207-735-4358,"1215 Broadway Banger, ME 04401",,,,,44.839043,-68.7934068,TRUE
USA,ME,Lewiston,Legends Sports Bar,(207) 241-0051,"4 Molliston Way Lewiston, ME 04240",,,,10,44.1242122,-70.2007826,TRUE
USA,ME,Machias,Thirsty Moose,207-255-6100,"36 Main St. Machias, ME 04654",,,,,44.715019,-67.4574036,TRUE
USA,ME,Minot,Legends Sports Bar & Grill,207-577-7102,"178 Harris Road Minot, ME 04258",,,,,44.1674478,-70.3413443,TRUE
USA,ME,Portland,American Pool & Billiards,(207) 899-3693,"272 St. John St. Portland, ME 04102",,,,,43.6524511,-70.2800613,TRUE
USA,ME,Waterville,TJ's Billiards,207-877-7665,"14.1 Airport Rd. Waterville, ME 04901",,,,,44.5366982,-69.6778575,TRUE
USA,ME,Windham,Club 302,207-776-9552,"20 Abbey Road Windham, ME 04062",,,,,43.8364505,-70.4370311,TRUE
USA,MI,Adrian,Diamond Jims,517-759-4464,"117 West Maumee St. Adrian, MI 49221",Jim Cavender,,,,41.8989154,-84.0374006,TRUE
USA,MI,Bay City,Who's Who,989-714-4843,"700 Ncgraw Bay City, MI 48708",Andy Kreger & Lupe Rosa,10,,1,43.5588551,-83.893277,TRUE
USA,MI,Belleville,The Creek,734-277-0174,"50521 W. Huron River Drive Belleville, MI 48111",Frank Lonero,,,,42.2006606,-83.5340461,TRUE
USA,MI,Belmont,The Vestal Inn,616-893-9315,"6255 West River Drive NE Belmont, MI 49306",Richard Dallett,,,,43.0648606,-85.6018313,TRUE
USA,MI,Beulah,Fallen Timbers,231-409-4676,"13901 US-31 Beulah, MI 49617",Rodger Duford,,,,44.659052,-85.959552,TRUE
USA,MI,Coldwater,JT's Billiard Bar,517-279-8002,"50 East Chicago St. Coldwater, MI 49036",Jim Tong,4,,,41.9400867,-84.9987763,TRUE
USA,MI,Dearborn,"Presley, Bryan",,"5045 Porath St. Dearborn, MI 48126",Bryan Presley,,,,42.3251873,-83.1587234,TRUE
USA,MI,Detroit,Blue Diamond Lounge,313-841-4836,"2453 Campbell Rd. Detroit, MI 48209",Daniel Vega,,,,42.3215105,-83.1073101,TRUE
USA,MI,Flat Rock,Michael's on the River,313-570-6236 (cell),"28828 Telegraph Road Flat Rock, MI 48134",Mike Crowder,,,,42.096081,-83.2941817,TRUE
USA,MI,Grand Rapids,Anazeh Sands - Charley's,616-364-0567,"3519 Plainfield Ave. NE Grand Rapids, MI 49525",,,,,43.0272916,-85.6327074,TRUE
USA,MI,Grand Rapids,Charleys,616-364-0567,"3519 Plainfield Ave. NE Grand Rapids, MI 49525",,,,2,43.0272916,-85.6327074,TRUE
USA,MI,Grand Rapids,East Side,616-285-1122,"3520 E Mall Dr. SE Grand Rapids, MI 49546",,,,,42.9160253,-85.5825145,TRUE
USA,MI,Grand Rapids,Eastside Billiards,616-826-3056 - Cell,"3520 E. Mall Dr. Grand Rapids, MI 49546",Rich Williams,16,,2,42.9160253,-85.5825145,TRUE
USA,MI,Grand Rapids,Quinn And Tuite's Irish Pub,616-813-8751,"1535 Plainfield Ave Grand Rapids, MI 49505",Rick Schall,,,,42.9904025,-85.6636753,TRUE
USA,MI,Grand Rapids,The Point Bar,734-384-3808,"1720 Hamilton Ave. NW Grand Rapids, MI 48166",,2,,,42.9945651,-85.6807442,TRUE
USA,MI,Hanover,Johnnies Backwoods,734-637-9969,"130 W. Main St. Hanover, MI 49241",John DeAngelis,,,,42.1020807,-84.5546708,TRUE
USA,MI,Holland,Reliable Sport and Billiards,616-396-7795,"254 South River Avenue Holland, MI 49423",Ken Vos,,,,42.7879059,-86.1094098,TRUE
USA,MI,Holt,Gravity Smokehouse BBQ,517-258-4900,"2440 Cedar St Holt, MI 48842",,2,,,42.6527067,-84.5298779,TRUE
USA,MI,Ignace,Johnnies Bar And Grill,734-637-9969,"W748 US 2 West St. Ignace, MI 49781",John DeAngelis,,,,45.854968,-84.7535716,TRUE
USA,MI,Ishpeming,The Royal Pub,906-360-9351,"205 East Division St. Ishpeming, MI 49849",Tom Austin,,,,46.4887673,-87.6673766,TRUE
USA,MI,Kalamazoo,Comstock Cue Club,269-775-1445,"5301 Comstock Ave. Kalamazoo, MI 49048",,,,,42.2845497,-85.5254173,TRUE
USA,MI,Lapeer,Side Pockets,810-660-8127,"15 S. Elba Rd. Lapeer, MI 48446",,9,,2,43.0407436,-83.4398848,TRUE
USA,MI,Lincoln Park,Ball & Cue Billiards,313-381-7665,"3434 Fort St. Lincoln Park, MI 48146",,,,,42.2353646,-83.1806819,TRUE
USA,MI,Lincoln Park,Lincoln Park Moose Lodge,248-660-2972,"1600 Fort St. Lincoln Park, MI 48146",Tim Caldwell,,,,42.2527893,-83.175577,TRUE
USA,MI,Livonia,Snookers Pool & Pub,734-422-9510,"27630 Schoolcraft Rd. Livonia, MI 48150",Michael Admas,,,,42.3848005,-83.3168906,TRUE
USA,MI,Livonia,The Rack,734-422-7665,"28410 Joy Rd Livonia, MI 48150",Richie & Mary Eadeh,,,,42.3558259,-83.3214022,TRUE
USA,MI,Muskegon,The Break Room,231-903-3961,"1447 W. Sherman Blvd Muskegon, MI 49441",Monica Moore,7,,1,43.2049423,-86.2792632,TRUE
USA,MI,Niles,Roundtable Bar & Grill,269-683-9738,"3024 N Old US-31 Niles, MI 49120",,,,,41.8871878,-86.3007212,TRUE
USA,MI,Novi,Centria Healthcare,(855) 772-8847 Office,"41521 W. 11th Mile Rd. Novi, MI 48375",Jacob Boven,,,,42.480988,-83.4577892,TRUE
USA,MI,Onsted,Johnnies Bar & Grill,313-438-6548,"130 North Main Onsted, MI 49265",John DeAngelis,,,,42.0068987,-84.1898719,TRUE
USA,MI,Owosso,On Cue,989-472-4472,"311 Corunna Ave. Owosso, MI 48867",,6,,,42.992411,-84.1674596,TRUE
USA,MI,Owosso,The Avenue,989-627-9249,"311 Corunna Ave. Owosso, MI 48867",Brad & Annette Brewer,7,,,42.992411,-84.1674596,TRUE
USA,MI,Pinconning,Statewide Billiards,231-445-0760,"4363 North Fraser Road Pinconning, MI 48650",Greg Thornton,,,,43.864312,-84.0085129,TRUE
USA,MI,Port Huron,The Billiard Loft,810-223-3754,"1300 Whipple St. Port Huron, MI 48060",,,,,42.991755,-82.4334277,TRUE
USA,MI,Riga,Johnnies Riga Tavern,734-637-9969,"7494 Riga Highway Riga, MI 49275",John DeAngelis,,,,41.8112515,-83.8255671,TRUE
USA,MI,Taylor,Johnnies In Taylor,734-637-9969 (cell),"20648 Ecorse Rd. Taylor, MI 48180",John DeAngelis,,,,42.2565357,-83.2392789,TRUE
USA,MI,Troy,Bailey's Pub & Grille,248-435-3044,"1965 West Maple Road Troy, MI 48084",,,,2,42.5461418,-83.1718741,TRUE
USA,MI,Warren,Hall of Fame Billiards,248-854-4647,"5775 East 13 Mile Road Warren, MI 48092",Ron or Robert Yaldo,,,,42.5222718,-83.0492446,TRUE
USA,MI,Waterford,Emerald Q Billiards,748-682-0660,"4359 Highland Rd. Waterford, MI 48328",Fabian Ruitman,,,,42.65352,-83.3737218,TRUE
USA,MI,Wyandotte,Grizzly's,734-708-4749,"1519 Oak St. Wyandotte, MI 48192",,,,,42.2036177,-83.1711819,TRUE
USA,MI,Wyoming,Charley's At Sands,616-538-0810,"1339 28th St. Wyoming, MI 49509",,,,,42.9138993,-85.6992147,TRUE
USA,MN,Burnsville,Shooters Billiard Club,952-484-6677,"1934 Hwy 13 E Burnsville, MN 55337",Craig Zoschke,,,,44.7896519,-93.2451612,TRUE
USA,MN,Columbia Heights,Pro Billiards,763-706-1904,"4040 Central Ave. NE Columbia Heights, MN 55421",,20,,,45.0421209,-93.2476596,TRUE
USA,MN,Columia Heights,Jimmy's Pro Billiards,651-230-3414 (Cell),"4040 Central Ave. NE Columbia Heights, MN 55421",Jimmy Wetch,,,,45.0421209,-93.2476596,TRUE
USA,MN,Coon Rapids,CR'S Billiards & Sports Bar,612-240-1018,"8525 Cottonwood Street NW Coon Rapids, MN 55433",Gerald Johnson,20,,,45.1251901,-93.271218,TRUE
USA,MN,Crookston,Crooks Club,218-281-5503,"223 N Main St. Crookston, MN 56716",,2,,,47.7760622,-96.6072584,TRUE
USA,MN,Crystal,Steve O's,763-537-5970,"4900 W Broadway Ave. Crystal, MN 55412",,2,,,45.0426725,-93.3513494,TRUE
USA,MN,Duluth,The Break Room,218-393-1697,"501 East 4th Street Duluth, MN 55805",Tom Witzman Roger Koski,8,,2,46.7946763,-92.0964561,TRUE
USA,MN,Fridley,Two Stooges,763-574-1399,"7178 University Ave. Fridley, MN 55432",Shane Jackson & Ty Wilson,36+,,,45.0984036,-93.2647686,TRUE
USA,MN,Little Canada,Twin City Billiards,651-689-0236,"80 Little Canada Road East Little Canada, MN 55117",,20,,,45.0245371,-93.0974214,TRUE
USA,MN,Minneapolis,Cardinal Restaurant,612-724-5837,"2920 E 38th St. Minneapolis, MN 55406",,4,,,44.9342484,-93.2300634,TRUE
USA,MN,Minneapolis,CR's Sportsbar,763-780-1585,"8525 Cottonwood St. NW Coon Rapids, MN 55433",,20,,,45.1251901,-93.271218,TRUE
USA,MN,Moorhead,Moorhead Billiards,218-205-2328,"701 Center Ave. Moorhead, MN 56560",,,,,46.8747792,-96.7694013,TRUE
USA,MN,Moorhead,Blues and More,218-443-1325 (Cell),"1034 90th Avenue NW Moorhead, MN 56560",Chantel Roberts,,,,46.9775046,-96.7972035,TRUE
USA,MN,North Brooklyn Park,Family Leisure,763-560-7727,"9742 Penn Avenue North Brooklyn Park, MN 55444",Robert Mattson,,,,45.1319366,-93.3121748,TRUE
USA,MN,Park Rapids,A Better Place,218-252-4612 (cell),"212 West 3rd St. Park Rapids, MN 56470",Gene Forbes,,,,46.9198894,-95.0609728,TRUE
USA,MN,Robbinsdale,Broadway Pizza,763-533-0800,"4106 Lakeland Ave. Robbinsdale, MN 55422",,4,,,45.0310052,-93.3359675,TRUE
USA,MN,Shakopee,Pullman Club,952-445-1938,"124 1st Ave. W Shakopee, MN 55379",,2,,,44.7983085,-93.5273976,TRUE
USA,MN,West St. Paul,Dunham's Food,651-451-7431,"173 Lothenbach Ave. Saint Paul, MN 55118",,8,,,44.8947499,-93.0776176,TRUE
USA,MO,Barnhart,Kenny's Bar & Grill,636-464-9070,"7045 Highway 61-67 Barnhart, MO 63012",Kenny Vaughn,,,,38.3432456,-90.3905001,TRUE
USA,MO,Camdenton,Marty's Bar And Grill,573-723-0048 Cell,"1162 S. Business Highway 5 Camdenton, MO 65020",Marty Mathis,,,,38.0211642,-92.7425811,TRUE
USA,MO,Cape Giradeau,JR's Bar & Billiards,573-803-2750,"829 S Kingshighway Cape Girardeau, MO 63701",,,,,37.2862227,-89.5563592,TRUE
USA,MO,Cape Giradeau,Blue Diamond Sports Bar,573-837-1148,"26 North Main Street Cape Girardeau, MO 63701",,10,,10,37.3041242,-89.5181682,TRUE
USA,MO,Centertown,The Outpost Bar and Grill,573-301-2222,"T9705 Lookout Trail Centertown, MO 65023",Mike Tellman,,,,38.618837,-92.4113206,TRUE
USA,MO,Columbia Heights,Mo River Pub,573-814-1434,"1624 Jade Rd. Columbia, MO 65201",,9,,2,38.9529629,-92.132307,TRUE
USA,MO,Farmington,Stix and Steins,314-630-3998,"805 Valley Creek Drive Farmington, MO 63640",Melanie Davis,,,,37.7914843,-90.4393669,TRUE
USA,MO,Hillsboro,Hillsboro Billiards,636-789-3559,"30 Merchants Drive Hillsboro, MO 63050",John Neels,,,,38.2264745,-90.5632439,TRUE
USA,MO,House Springs,Cosmic Lounge,314-703-6552,"4642 House Springs Center House Springs, MO 63051",Terry Brooks,,,,38.4091419,-90.5762811,TRUE
USA,MO,Joplin,OK Bar,417-540-9191 Cell,"1516 S. Main St. Joplin, MO 64801",Amanda Love,,,,37.074492,-94.5142278,TRUE
USA,MO,Kansas City,Chartreuse Saloon,402-326-5304,"Jill Cockson 1627 Oak St. Kansas City, MO 64108",Jill Cockson,,,,39.09339,-94.5785414,TRUE
USA,MO,Kansas City,Side Pockets North,816-455-9900,"600 NW Englewood Rd. Kansas City, MO 64118",,,,,39.197398,-94.5881183,TRUE
USA,MO,Kansas City,Brass Rail,816-468-6100,"9104 North Essex Drive Kansas City, MO 64156",Rick Jones,,,,39.2581809,-94.5338791,TRUE
USA,MO,Kansas City,Swordfish Toms,402-326-5304,"210 W 19 Terrace Kansas City, MO 64108",,,,,39.0903248,-94.5867119,TRUE
USA,MO,Kirksville,Dukum Inn,660-216-9764,"111 South Elson Street Kirksville, MO 63501",Craig Shorten,,,,40.1941929,-92.5840126,TRUE
USA,MO,Lee's Summit,Side Pockets,816-524-2400,"224 NW Oldham Pkwy. Lee's Summit, MO 64081",,27,,,38.9177558,-94.4024903,TRUE
USA,MO,Osage Beach,Lake Billiards,407-800-5707 Cell,"4344 Osage Beach Pkwy Ste 2-A Osage Beach, MO 65065",David Dyer,,,,38.1483787,-92.6194312,TRUE
USA,MO,Overland,Cue & Cushion,314-852-6293,"2425 Woodson Rd. Overland, MO 63114",Craig Huddleston,,,,38.7020105,-90.3622213,TRUE
USA,MO,Pacific,Q-Ball's Billiard Supplies,636-485-4354,"508 Cypress Pacific, MO 63069",Ken Thiemann,,,,38.4757699,-90.7585913,TRUE
USA,MO,Piedmont,Piedmont Family Billiards Pub,573-223-2351,"329 Highway AA Piedmont, MO 63957",Mike McKuin,,,,36.7883115,-90.3350243,TRUE
USA,MO,Poplar Bluff,The Break Room,573-609-2266,"2201 North Westwood Boulevard #7 Poplar /bluff, MO 63901",Dwayne Coursey,,,,36.7789636,-90.425222,TRUE
USA,MO,Rolla,Sput's Place,573-578-4959,"17829 Maries Hwy 63 Rolla, MO 65401",Warren Ragers,,,,37.960999,-91.7456121,TRUE
USA,MO,Saint Joseph,Felix Street Pub,816-262-7899,"516 Felix Street Saint Joseph, MO 64501",Brian Loe,,,,39.7663789,-94.8534174,TRUE
USA,MO,Saint Peters,Action Billiard Co.,636-928-7772,#12 Drive Newberry Drive Saint Peters. MO 63376,Bud Evans,,,,38.757519,-90.6198414,TRUE
USA,MO,Saint Peters,Teacher's Billiards,636-441-9964,"3611 North Saint Peters Parkway Saint Peters, MO 63376",Lou,,,,38.7496229,-90.5863483,TRUE
USA,MO,Springfield,Bugsy Malone's,417-501-1066,"2925 W Republic Rd. Ste. 108 Springfield, MO 65807",,2,,,37.1390273,-93.337593,TRUE
USA,MO,Springfield,Crazy Hats Lounge,417-773-8292,"1611 N campbell Springfield, MO 65803",,2,,,37.2277723,-93.2940154,TRUE
USA,MO,Springfield,Marty's Sports Bar,417-720-1228,"3322 S Campbell Ave. Springfield, MO 65807",,3,,,37.1541756,-93.2938137,TRUE
USA,MO,Springfield,Southbound Bar & Grill,417-755-7774,"5739 Campbell Ave. Ste. B Springfield, MO 65810",,3,,,37.1104429,-93.298118,TRUE
USA,MO,Springfield,Dennis' Place,417-725-8315,"921 West Sunshine Street Springfield, MO 65807",Dennis Scott,10,,1,37.1827412,-93.3025844,TRUE
USA,MO,St. Louis,The Crowbar,314-942-6729,"2811 Woodson Rd. St. Louis, MO 63114",,4,,,38.708388,-90.361115,TRUE
USA,MO,St. Louis,Pints & Rails,314-849-7665,"8924 Watson Road St. Louis, MO 63123",Scott Littles,,,,38.561855,-90.3643836,TRUE
USA,MO,St. Louis,The Cue,314-537-2828,"3632 South Big Bend St. Louis, MO 63143",Jeremy Mealey,7,,1,38.6011889,-90.3254685,TRUE
USA,MO,St. Peters,Teacher's Billiards,636-441-9964,"3611 N St. Peters Pkwy. Saint Peters, MO 63376",,14,,4,38.7496229,-90.5863483,TRUE
USA,MO,St. Peters,Diamond Music Hall,636-477-6825,"4109 N. Cloverleaf St. Peters, MO 63376",Darrell Tullock Jr.,15,,,38.7934764,-90.5735287,TRUE
USA,MO,Valley Park,The Players Club,314-805-8922,"206 Meramec Valley Plaza Valley Park, MO 63088",Brendan Sullivan,,,,38.548301,-90.4927251,TRUE
USA,MO,Vanduser,Vanduser Cafe & Pool Hall,573-472-3716,"407 Joyce Street Vanduser, MO 63784",Clay Graviett,,,,36.9903351,-89.686432,TRUE
USA,MO,Vichy,Sput's Place Bar & Grill,573-299-4412,"17829 Maries Highway 63Vichy, MO 65580",,8,,,39.425219,-92.4118735,TRUE
USA,MO,Webb City,66 Sports Bar & Restaurant,(305) 904-1777,"660 East Daugherty Street Webb City, MO 64870",Anastasios Voutiritsas,,,,37.1470089,-94.456871,TRUE
USA,MS,Biloxi,Boogies Grill and Chill,228-265-0631,"388 Big Lake Rd. Biloxi, MS 39531",Jennifer Wilson,,,,30.407175,-88.9884788,TRUE
USA,MS,Camden,Michael's 43,601-267-5945,"5672 Hwy 43 Camden, MS 39045",Michael Wilder,,,,32.7598608,-89.7627442,TRUE
USA,MS,Cleveland,Str8 Shooters,662-645-4593,"219 North St. Cleveland, MS 38732",Chris Yarborough,,,,33.7445699,-90.7171484,TRUE
USA,MS,Grenada,The Sports Center,662.226.1322,"PO Box 28 Grenada, MS 38902",Duane McKinney,,,,33.78215,-89.8287335,TRUE
USA,MS,Gulfport,Good Times Sports Bar,985-705-1023,"13292 Wisteria Drive Gulfport, MS 39503",Oscar Bato,,,,30.4811137,-89.0548661,TRUE
USA,MS,Gulfport,Skeeters Bar & Grill,228-265-0631,"197 Tegarden Ln. Gulfport, MS 39507",Ricky Dombrowski & Jennifer Mullins,,,,30.3836917,-89.0360612,TRUE
USA,MS,Hattiesburg,The Green Room,601-297-6042,"6528 Hwy 49 North Hattiesburg, MS 39401",Shawn Dykes,,,,31.350079,-89.3374186,TRUE
USA,MS,Jackson,The Green Room,601-713-3444,"444 Bounds St. Jackson, MS 39206",Truett Hawkins,,,,32.3704815,-90.1505594,TRUE
USA,MS,McComb,Kramer Town Billiards,(601) 324-3555,"601 S Railroad Blvd. McComb, MS 39648",,,,,31.2371249,-90.4505685,TRUE
USA,MS,Meridian,Dirty Business Billiards,601-616-5543,"103 20th Avenue South Meridian, MS 39301",Amanda Holifield,,,,32.3622598,-88.6953617,TRUE
USA,MS,Meridian,Lance's Place,601-479-4129,"2307 4th Street Meridian, MS 39301",Lance Crenshaw Bruce,,,,32.3623263,-88.7006724,TRUE
USA,MS,Meridian,Miss Q's,,"2404 5th Street Meridian, MS 39301",Chris Adkins,,,,32.3630126,-88.701773,TRUE
USA,MS,Southaven,Southaven Recreation Center,(662) 342-0230,"987 Town & Country Dr. Southaven, MS 38671",,,,,34.9940425,-90.0073451,TRUE
USA,MS,Starkville,Southern Billiards,(662) 323-7665,"103 S. Washington St. Starkville, MS 39759",,,,,33.4631241,-88.8163575,TRUE
USA,MS,Tupelo,Shade Tree Lounge,662-680-4336,"883 South Green St. Tupelo, MS 38804",D'Anne Richie,,,,34.24501,-88.7090343,TRUE
USA,MS,West Point,Sopranos Cafe & Billiards,(662) 494-0520,"113 E Main St. West Point, MS 39773",,,,,33.6073694,-88.6499048,TRUE
USA,MS,West Summit,County Line Billiards,601-669-1774,"4130 County Line West Summit, MS 39666",Gary Martin,,,,31.3481299,-90.4806516,TRUE
USA,MT,Billings,Brothers Billiards,(406) 855-0464,"1442 Main St. Billings, MT 59105",,8,,5,45.8252338,-108.4715529,TRUE
USA,MT,Billings,Rec Room Inc.,406-670-4325 (Cell),"945 Grand Avenue Billings, MT 59102",Michael Guzman,,,,45.784289,-108.540788,TRUE
USA,MT,Black Eagle,Black Eagle Country Club,(406) 761-8435,"1126 Smelter Ave NE Black Eagle, MT 59414",,,,,47.5247846,-111.2899142,TRUE
USA,MT,Bozeman,Spas and Home Recreation,(406) 585-0800,"35 Marie Ct. Bozeman, MT 59718",Nick Douma,,,,45.6454599,-111.1789468,TRUE
USA,MT,Butte,Silver Bow Athletic Club,406-498-2282,"1203 Howard Street Butte, MT 59701",Julie Deshner,,,,46.003186,-112.5060134,TRUE
USA,MT,Butte,Ace High Casino,(406) 498-2062,"1700 Harrison Ave. Butte, MT 59701",Julie Deshner,,,,45.9979145,-112.5152216,TRUE
USA,MT,Butte,Party Palace,406-498-2282,"1 West Park Street Butte, MT 59701",Julie Deshner,,,,46.0129838,-112.5360643,TRUE
USA,MT,Helena,Eagles 4040,406-227-7531,"PO Box 865 East Helena, MT 59635",Michael Ryan,,,,46.5896567,-111.9155461,TRUE
USA,MT,Joliet,212 Bar & Grill,(406) 860-6798,"600 West Front Street Joliet, MT",Hal Ward,,,,45.4819394,-108.9787741,TRUE
USA,MT,Missoula,3 In The Side,(406) 543-0646,"P.O. Box 8624 Missoula, MT 59807",Scott MacIntyre,,,,46.852162,-114.0156097,TRUE
USA,MT,Southwest Great Falls,Jack's Billiards,406-761-2878,"809 13th Street Southwest Great Falls, MT 59404",Jack McFeteridge,,,,47.4983494,-111.3352837,TRUE
USA,NC,Albemarle,Bulldogs Sports Bar & Gril,704-550-5271,"134 Highway 740 Albemarle, NC 28001",David Meacham,,,,35.3500748,-80.1644441,TRUE
USA,NC,Arden,Fat Cat's Billiards,828-775-9859,"2345 Hendersonville Road Arden, NC 28704",Dustianna Smith,13,,2,35.4666174,-82.5174422,TRUE
USA,NC,Boone,Country Retreat Family,828-268-1713 (Cell),"9021 Highway 105 South Boone, NC 28607",,,,,36.1565362,-81.7724217,TRUE
USA,NC,Carrboro,Tyler's Restaurant & Taproom,919-929-6881,"102 E Main St. Carrboro, NC 27510",,6,,8,35.9101757,-79.0719643,TRUE
USA,NC,Cary,Break Time Billiards,919-210-5990 (Rich),"6442 Tryon Road Cary, NC 27518",Sara Horsley,,,10,35.7458333,-78.7619444,TRUE
USA,NC,Chapel Hill,Oscar's Q & Bar,919-418-9711,"1129 Weaver Dairy Rd. Chapel Hill, NC 27514",,,,,35.962854,-79.0527647,TRUE
USA,NC,Charlotte,Montford Billiards,980-335-2392,"1607 Montford Dr. Charlotte, NC 28209",,,,,35.170976,-80.8493255,TRUE
USA,NC,Charlotte,Slate Billiards,704-372-5255,"200 E Bland St. Charlotte, NC 28203",,3,,,35.2165178,-80.8546171,TRUE
USA,NC,Charlotte,Smokin Cue Billiards,704-548-0882,"10901-10 University City Boulevard Charlotte, NC 28213",Matt Riggs,,,,35.314513,-80.7023754,TRUE
USA,NC,Charlotte,The Press Box,304-319-0835,"9609 North Tryon Street Suite A Charlotte, NC 28262",Chris Babilonia,,,,35.31723,-80.73915,TRUE
USA,NC,Charlotte,UNC Charlotte,704-687-7112,"9201 University City Charlotte, NC 28223",,,,,35.3056522,-80.7320316,TRUE
USA,NC,Cherryville,Tom's Tables,704-678-0064 (Cell),"7507 Dallas Cherryville Highway Cherryville, NC 28021",Tom Sellers,,,,35.3854072,-81.3482776,TRUE
USA,NC,Concord,Hot Shots Sports Bar,704-910-0280,"7731 Gateway Ln. NW Concord, NC 28028",,,,,35.3661284,-80.7084943,TRUE
USA,NC,Concord,Everything Billiards,704-456-7775,"7730 Bruton Smith Blvd. Concord, NC 28027",Judson Bobo,,,,35.3650627,-80.7099218,TRUE
USA,NC,Durham,The Green Room,828-464-6583,"1108 Broad Street Durham, NC 27705",Michael Dearing,,,,36.016052,-78.9189615,TRUE
USA,NC,Eden,Clean Slate Billiards,336-613-2702,"111 North Hundley Drive Eden, NC 27288",Tina Lawson,,,,36.5141282,-79.6992527,TRUE
USA,NC,Fayetteville,Corner Pocket,910-779-0101,"2443 Hope Mills Road Fayetteville, NC 28304",Tom Greb,8,,2,35.0095737,-78.9661424,TRUE
USA,NC,Fayetteville,Phat Daddy's Sports Bar,910-223-1515,"3406 Raeford Rd. Fayetteville, NC 28303",,,,,35.0446692,-78.9375305,TRUE
USA,NC,Fuquay-Verina,Triple Barrel Tavern,919-762-0940,"2221 N Grassland Dr. Fuquay Varina, NC 27526",,,,10,35.6157676,-78.8105446,TRUE
USA,NC,Gastonia,Rockhouse,704-852-4469,"2699 Aberdeen Blvd. Gastonia, NC 28054",,10,,10,35.2683319,-81.131203,TRUE
USA,NC,Goldsboro,Silver Spur,919-440-8925,"308 A St. Goldsboro, NC 27534",Paul Williams,,,,35.3992417,-77.9951629,TRUE
USA,NC,Goldsboro,The Flying Shamrock,919-580-0934,"115 N John St. Goldsboro, NC 27530",,3,,,35.3832498,-77.9954108,TRUE
USA,NC,Greensboro,Shooters,336-852-1448,"3808 Highpoint Rd. Greensboro, NC 27407",Buddy Cambron,8,,4,36.038856,-79.8561951,TRUE
USA,NC,Greensboro,Gate City Billiards Club,336-856-8800 (Cell),"6004 Landmark Center Blvd. Greensboro, NC 27407",Donald Leibes,,,,36.0520726,-79.8914063,TRUE
USA,NC,Greensboro,Everything Billiards,336-988-8642,"111 Guilford College Road Greensboro, NC 27409",Rob Hyler,,,,36.075208,-79.8974551,TRUE
USA,NC,Havelock,BJ's Billiards,252-671-5063,"446 West Brookcenter Havelock, NC 28532",Marylin Philippart,,,,34.8790492,-76.9013301,TRUE
USA,NC,Henderson,Deep South Billiards,252-430-9892,"626 Corbitt Road Henderson, NC 27536",Steve Spence,,,,36.3257962,-78.4215619,TRUE
USA,NC,Hickory,Randolph's Billiards,828-244-4581,"16 2nd Street Northwest Hickory, NC 28601",Lee Canipe,,,,35.7325392,-81.3391943,TRUE
USA,NC,Hickory,Shooter's Lounge of Viewmont,828-578-6595,"2149 N Center St. Hickory, NC 28601",,3,,,35.7612418,-81.3341614,TRUE
USA,NC,Hickory,Shooter's Lounge of Mountain View,828-672-1006,"2936 NC-127 Hickory, NC 28602",,3,,,35.6858725,-81.3661931,TRUE
USA,NC,High Point,Sharky's Bar & Billiards,336-889-2541,"2615 South Main St. Suite 107 High Point, NC 27263",Ronnie Humble,,,,35.9277598,-79.9874135,TRUE
USA,NC,Jacksonville,Music Vendors,910-455-5555,"1225 Legeune Blvd Jacksonville, NC 28540",Michael Saulnier,,,,34.7471177,-77.4005108,TRUE
USA,NC,Jacksonville,Rack M Pub & Billiards,910-347-6414,"1150 Henderson Dr. Jacksonville, NC 28540",Greg Cribb,,,,34.782385,-77.42359,TRUE
USA,NC,Jacksonville,Music Vendors,910-455-5555,"1225 Legeune Blvd Jacksonville, NC 28540",,,,,34.7471177,-77.4005108,TRUE
USA,NC,Jacksonville,Rack M,910-347-6414,"1150 Henderson Dr. Jacksonville, NC 28540",,,,,34.782385,-77.42359,TRUE
USA,NC,Kannapolis,The Pub,704-791-3482,"1532 N Ridge Avenue Kannapolis, NC 28083",Rick Husband,3,,,35.5163068,-80.6121153,TRUE
USA,NC,Kinston,The Dugout,252-208-0304,"674 Stratford St. Kinston, NC 28504",,2,,2,35.261724,-77.641593,TRUE
USA,NC,Leland,Local's Tavern,910-769-1289,"1107 New Pointe Blvd. Leland, NC 28451",,4,,,34.2109379,-78.0259155,TRUE
USA,NC,Mathews,Rack 'em Pub & Billiards,704-907-2191,"1898 Windsor Square Drive Mathews, NC 28105",Blake Anthony,,,,35.134217,-80.7088804,TRUE
USA,NC,Mooresville,Hotshots Sports Bar,704-799-0748,"247 E Plaza Dr. Mooresville, NC 28115",,,,,35.5899419,-80.8286096,TRUE
USA,NC,Morrisville,PMC Commercial Interiors,919-694-7463,"3000 Perimeter Park Dr. Morrisville, NC 27560",Ashley Trexler,,,,35.8444957,-78.8339347,TRUE
USA,NC,New Bern,Mickey Milligans Billiards,252-622-0969,"3411 Trent Rd, New Bern, NC 28562",Jerry Sheppard,,,6,35.0925092,-77.0933938,TRUE
USA,NC,Newton,Captain Jack's Brews N Cues,209-656-1414,"14 E. 1st Street Newton, NC 28658",Mindy Linhares,1,,5,35.6637278,-81.2218325,TRUE
USA,NC,Newton,Hilltop Sports Club,828-465-3890,"1341 NC 16 Highway Business Newton, NC 28658",Denny Sigmon,,,,35.6550152,-81.2086839,TRUE
USA,NC,Pineville,Blue Rocks,704-835-1062,"301-C N. Polk Street Pineville, NC 28134",,,,,35.0871939,-80.8875278,TRUE
USA,NC,Providence,Still Cluckin',434-441-7054 (Cell),"11175 Hwy 86N Providence, NC 27315",Julian Robertson,,,,36.5397636,-79.401155,TRUE
USA,NC,Raleigh,Brown's Billiards Ltd,919-878-9092,"5500 Atlantic Springs Rd. Raleigh, NC 27616",,,,,35.8575476,-78.5966448,TRUE
USA,NC,Raleigh,Brass Tap & Billiards,919-876-2382,"3316 Capital Boulevard #0 Raleigh, NC 27604",Tony Coates,,,8,35.8243553,-78.5853519,TRUE
USA,NC,Raleigh,Brown's Billiards of Raleigh,919-369-7656,"5500-107 Atlantic Springs Road Raleigh, NC 27616",David Huffman,,,,35.8576,-78.596734,TRUE
USA,NC,Raleigh,Buck's Billiards,919-467-5411,"1102 Buck Jones Road Raleigh, NC 27606",Buck Van Nortwick,,,,35.7694257,-78.7412805,TRUE
USA,NC,Rocky Mount,Dot's Cue Club,252-212-3373,"14268 US Highway 64 Alt W Rocky Mount, NC 27801",,,,,35.9455087,-77.7511922,TRUE
USA,NC,Salisbury,Shark Tank 2,704-437-2809,"612 South Main Salisbury, NC 28144",Paul Hudson,4,,,35.6630441,-80.4762324,TRUE
USA,NC,Spindale,Rutherford County Senior Center,828-287-6411,"193 Callahan Koon Rd #132 Spindale, NC 28160",Tammy Aldridge,,,,35.3493859,-81.909698,TRUE
USA,NC,Statesville,Chandley's Chalk & Cue,980-635-1109,"1415 Wilkesboro Hwy. Statesville, NC 28625",,,,,35.8038218,-80.9092509,TRUE
USA,NC,Statesville,Box Car Grill,704-390-5258,"3103 Taylorsville Highway Statesville, NC 28677",Michael Henderson,,,,35.7941104,-80.9382736,TRUE
USA,NC,Sylva,O'Malley's Sports Bar and Grill,828-631-0554,"83 Asheville Highway Sylva, NC 28779",Cory Coleman,,,,35.3760223,-83.2132461,TRUE
USA,NC,West Rocky Mountain,Dot's Cue Club,252-886-3865,"14268 US Hwy 64 Alt. West Rocky Mountain, NC 27801",,,,,35.9455087,-77.7511922,TRUE
USA,NC,Whiteville,Norris Brother's Billiards and Games,910-625-9989,"1727-11/13 South Madison Street Whiteville, NC 28472",,,,,34.3032936,-78.7163543,TRUE
USA,NC,Wilkesboro,Country Bares Billiards,336-984-9822,"4825 Statesville Road North Wilkesboro, NC 28659",,,,,36.1145301,-81.0854041,TRUE
USA,NC,Wilmington,Break Time Billiards,910-395-6658,"127 S College Rd. Ste. 12 Wilmington, NC 28403",,24,,9,34.24245,-77.86885,TRUE
USA,NC,Wilmington,Fox & Hound Wilmington,910-509-0805,"920 Town Center Drive Wilmington, NC 28405",,2,,,34.2423135,-77.8327121,TRUE
USA,NC,Wilmington,Rack'M Darts & Billiards,910-792-6000,"415 S College Rd. Wilmington, NC 28403",,,,,34.2325444,-77.8735069,TRUE
USA,NC,Wilmington,Tavern 14,910-769-2225,"6309 Market St. Wilmington, NC 28405",,,,,34.2549186,-77.8468645,TRUE
USA,NC,Wilmington,Ten Pin Alley Breaktime Billiards,910-452-5455,"127 S College Rd. Wilmington, NC 28403",,10,,8,34.2413121,-77.8682377,TRUE
USA,NC,Wilmington,Breaktime Billiards,910-395-6658 (Office),"127 S. College Rd. Wilmington, NC 28403",,,,,34.2413121,-77.8682377,TRUE
USA,NC,Winston-Salem,Breaktime Billiards and Sports Bar,732-763-6969,"420 Jonestown Road Winston-Salem, NC 27104",,,,,36.0744058,-80.3388384,TRUE
USA,NC,Winterville,Buck Wild Tavern,252-347-6143 (Cell),"4052 South Memorial Drive Suite A Winterville, NC 28590",,,,,35.554074,-77.4075203,TRUE
USA,ND,Fargo,Fargo Billiards,701-282-4168,"1331 Elm Circle Fargo, ND 58102",,,,,46.8912586,-96.7746159,TRUE
USA,ND,Minot,The Spot,701-852-7768,"6 2nd Street NE Minot, ND 58703",,8,,2,48.236748,-101.289363,TRUE
USA,NE,Omaha,Tailgate Games,402-917-4295,"8909 Bedford Circle Suite #5 Omaha, NE 68134",Chris Blaylock & Steve Stessman,,,,41.2885126,-96.0515201,TRUE
USA,NH,Hampton Falls,House of Billiards,(818) 671-9742,"1 Lafayette Road Hampton Falls, NH 03844",Vikki O'Keefe,6,,9,42.9233765,-70.8528268,TRUE
USA,NH,Laconia,Foosball Sports Vending,603-393-8113,"PO Box 1301 Laconia, NH 03247",,,,,43.5298981,-71.4692376,TRUE
USA,NH,Plaistow,Crow's Nest Pub & Grill,603-974-1696,"181 Plaistow Road Plaistow, NH 03865",,,12,,42.8546905,-71.0982589,TRUE
USA,NH,Pelham,Strokers Billiards Pelham,603-508-6491,"116 Bridge St. Pelham, NH 03076",,2,,7,42.7200315,-71.319204,TRUE
USA,NJ,Beach Haven,Jack's Racks,609-709-2842,"432 Dock Rd. Beach Haven, NJ 08008",Pat O'Donnell,,,,39.5652341,-74.242544,TRUE
USA,NJ,Berlin,Golden Nugget Tavern,856-767-9872,"433 New Freedom Road Berlin, NJ 08009",Jim Nunnenkamp,,,,39.7634356,-74.9276819,TRUE
USA,NJ,Berlin,Woodbriar Inn,856-767-8989,"20 Winding Way Berlin, NJ 08009",Carole Supino,,,,39.7815637,-74.9336871,TRUE
USA,NJ,Cherry Hill,The Big Event,856-429-0672,"1536 Kings Hwy N Cherry Hill, NJ 08034",,2,,6,39.9172853,-75.008266,TRUE
USA,NJ,Clementon,Hideaway Tavern,856-346-5909,"263 White Horse Avenue Clementon, NJ 08021",Tim Lindmeier,,,,39.812469,-74.9898064,TRUE
USA,NJ,Delran,Delran Billiards,856-255-5204,"4000 Rt. 130 N Ste 12B Delran, NJ 08075",,6,1,6,40.0112568,-74.9610336,TRUE
USA,NJ,Dover,Pancho Villa Rodeo,862-432-0195,"142 East Blackwell Street Dover, NJ 07801",Jorge Rizo,,,,40.8846366,-74.5512146,TRUE
USA,NJ,Edison,Richie's Sports Bar,732-393-8114,"52 Vineyard Rd. Edison, NJ 08817",,3,,,40.519071,-74.377381,TRUE
USA,NJ,Edison,Sandcastle Billiards,732-632-9277,"101 Townsley St. Edison, NJ 08837",,,,,40.5302785,-74.3526816,TRUE
USA,NJ,Ephraim,Spread Eagle,609-502-8037,"316 W Kings Hwy Mount Ephraim, NJ 08059",Tim Lindmeier,,,,39.8804197,-75.0914732,TRUE
USA,NJ,Gloucester City,Jack's Twin Bar,856-456-6614,"200 South Broadway Gloucester City, NJ 08030",Dennis Galligan,,,,39.8924859,-75.1201847,TRUE
USA,NJ,Hoboken,Hoboken Billiards,201-876-9666,"1015 Adams St. Hoboken, NJ 07030",Ian Rintel,,,,40.7502689,-74.0336204,TRUE
USA,NJ,Howell,Side Pocket Billiards,732-987-4343,"4308 Rt 9 S Howell, NJ 07731",,,,,40.1457622,-74.2269676,TRUE
USA,NJ,Jackson,Knights of Columbus,732-279-5423 Jim,"401 Bartley Road Jackson, NJ 08527",Mike Hart,,,,40.1487456,-74.2771296,TRUE
USA,NJ,Linden,The Stanley Cup,908-925-8369,"1410 E. Elizabeth Ave. Linden, NJ 07036",Dan Stanley,,,,40.6439832,-74.2377871,TRUE
USA,NJ,Little Egg Harbor,Mystic Billiards,609-489-3167,"918 Radio Rd. Little Egg Harbor, NJ 08087",John Perugg,,,,39.5686008,-74.3704082,TRUE
USA,NJ,Seaside Heights,Hemmingways Cafe,732-684-9701,"612 Boulevard Seaside Heights, NJ 08751",Vincent Craparotta,,,,39.9416868,-74.0733008,TRUE
USA,NJ,Somerdale,Fat Albert's Billiards,856-344-7298,"600 North White Horse Pike - Unit 1 Somerdale, NJ 08083",Albert Tonelli & Joseph Young,,,,39.8512858,-75.0236549,TRUE
USA,NJ,South River,Gold Star Bar,732-433-3970,"33 White Head Ave. South River, NJ 08882",Steve Grego,,,,40.4439795,-74.3693445,TRUE
USA,NJ,Southhampton,"KRS Services, Inc.",609-859-3030,"1806 Route 206 Southampton, NJ 08088",Richard Shaw,,,,39.8939038,-74.7402678,TRUE
USA,NJ,Sussex,The Green Olive,801-574-0770,"2 Sheba Drive Sussex, NJ 07461",Kosta Pulopulo,,,,41.2116431,-74.520122,TRUE
USA,NJ,Trenton,Kennedy's,609-695-5979,"1701 South Clinton Ave. Trenton, NJ 08610",Jim Kennedy,,,,40.2034705,-74.7376046,TRUE
USA,NJ,Trenton,Olde Liberty Tavern,609-396-2262,"2114 Liberty Street Trenton, NJ 08629",Jeff Shaw,,,,40.2166472,-74.7301135,TRUE
USA,NJ,Trenton,Peter's Place,609-271-4097 Cell,"1058 S. Broad St. Trenton, NJ 08611",Mike Peters,,,,40.2048153,-74.7443368,TRUE
USA,NJ,Union,Black Diamond Billiards,848-219-7832,"1767 Rte 22 W Union, NJ 07083",,,,10,40.6843079,-74.2531465,TRUE
USA,NJ,West Berlin,OTTS,856-767-3534,"588 North Route 73 West Berlin, NJ 08091",Tim Hamilton,,,,39.818931,-74.9296979,TRUE
USA,NJ,Westville,Tower Tavern,856-456-9466,"32 River Dr. Westville, NJ 08093",William Reed,,,,39.8730117,-75.1263754,TRUE
USA,NJ,Williamstown,American Legion #252,(609) 685-0909,"20 Sicklerville Road Williamstown, NJ 08094",Joe Reed,,,,39.6865626,-74.9946403,TRUE
USA,NM,Albuquerque,Billiards Palace,505-550-2796,"2288 Wyoming Blvd. N.E. Albuquerque, NM 87112",Hrant Kostanian & Levon Hovhannisyan,,,,35.1082046,-106.549108,TRUE
USA,NM,Farmington,Lucky Break,505-801-9376,"3010 E. 20th St. Ste B Farmington, NM 87402",Diane Mason,4,,6,36.749361,-108.165938,TRUE
